stop_lat,wheelchair_boarding,stop_code,stop_lon,stop_id,stop_url,parent_station,stop_desc,stop_name,location_type,zone_id
43.25,0,,-79.87,1,,,,MacNab Transit Terminal,1,
43.22,0,,-79.76,2,,,,Eastgate Terminal,1,
43.21,0,,-79.86,3,,,,Limeridge Terminal,1,
43.25,0,,-79.91,90,,,MAIN ST W & EMERSON ST,MAIN & EMERSON,0,
43.22,0,,-79.74,318,,,HIGHWAY NO. 8 & GRAY RD,QUEENSTON & GRAY,0,
43.25,0,2939,-79.89,1001,,,ABERDEEN AV & CHEDOKE AV,ABERDEEN at CHEDOKE,0,
43.25,0,2940,-79.89,1002,,,ABERDEEN AV & COTTAGE AV,ABERDEEN at COTTAGE,0,
43.25,0,2952,-79.89,1003,,,ABERDEEN AV & COTTAGE AVENUE OPP,ABERDEEN opposite COTTAGE,0,
43.25,0,2952,-79.89,1004,,,ABERDEEN AV & DUNDURN STREET,ABERDEEN at DUNDURN,0,
43.25,0,2940,-79.89,1005,,,ABERDEEN AV & DUNDURN STREET,ABERDEEN at DUNDURN,0,
43.24,0,2952,-79.88,1006,,,ABERDEEN AV & KENT STREET,ABERDEEN at KENT,0,
43.24,0,2941,-79.88,1007,,,ABERDEEN AV & KENT STREET,ABERDEEN at KENT,0,
43.24,0,2952,-79.88,1008,,,ABERDEEN AV & LOCKE STREET,ABERDEEN at LOCKE,0,
43.25,0,2955,-79.90,1009,,,ABERDEEN AV & LONGWOOD ROAD,ABERDEEN at LONGWOOD,0,
43.25,0,2939,-79.90,1010,,,ABERDEEN AV & LONGWOOD ROAD OPP.,ABERDEEN opposite LONGWOOD,0,
43.25,0,2953,-79.89,1011,,,ABERDEEN AV & CHEDOKE AV,ABERDEEN opposite CHEDOKE,0,
43.24,0,2941,-79.88,1012,,,ABERDEEN AV & SPRUCESIDE AVENUE,ABERDEEN at SPRUCESIDE,0,
43.25,0,2939,-79.89,1013,,,ABERDEEN AV & STUDHOLME AVENUE,ABERDEEN at STUDHOLME,0,
43.25,0,2953,-79.89,1014,,,ABERDEEN AV & STUDHOLME ROAD OPP.,ABERDEEN opposite STUDHOLME,0,
43.24,0,2941,-79.88,1015,,,ABERDEEN AV & UNDERMOUNT AVENUE,ABERDEEN at UNDERMOUNT,0,
43.20,0,2630,-79.98,1017,,,AMBERLY BV & BLOOMSBURY COURT OPP.(@#21),AMBERLY opposite BLOOMSBURY,0,
43.20,0,2632,-79.99,1018,,,AMBERLY BV & CHIPPENDALE AVENUE OPP.(@#265),AMBERLY opposite CHIPPENDALE,0,
43.20,0,2621,-79.99,1019,,,AMBERLY BV & SUNNYMEADE DRIVE (OP. # 257),AMBERLY at SUNNYMEADE,0,
43.20,0,2622,-79.98,1020,,,AMBERLY BV & COTTINGHAM CT (WEST LEG),AMBERLY at COTTINGHAM WEST,0,
43.20,0,2622,-79.98,1021,,,AMBERLY BV & FIDDLER'S GREEN ROAD,AMBERLY at FIDDLERS GREEN,0,
43.20,0,2631,-79.98,1022,,,AMBERLY BV & LEITH COURT,AMBERLY at LEITH COURT,0,
43.20,0,2621,-79.99,1023,,,AMBERLY BV & MELANIE COURT (WEST LEG),AMBERLY at MELANIE WEST,0,
43.20,0,2631,-79.99,1024,,,AMBERLY BV & MELANIE CT (WEST LEG) OP(@#161,AMBERLY opposite MELANIE WEST,0,
43.20,0,2632,-79.99,1025,,,AMBERLY BV & WILSON STREET,AMBERLY at WILSON,0,
43.19,0,2131,-79.82,1026,,,ANCHOR RD & BIGWIN ROAD OPP.,ANCHOR opposite BIGWIN,0,
43.20,0,2624,-79.97,1027,,,ANSON DR & GARNER RD E,ANSON at GARNER,0,
43.24,0,2091,-79.86,1028,,,ARKLEDUN AV & KINGSWAY DR,ARKLEDUN opposite KINGSWAY,0,
43.24,0,2090,-79.86,1029,,,ARKLEDUN AV & KINGSWAY DR,ARKLEDUN opposite KINGSWAY,0,
43.24,0,2028,-79.86,1030,,,ARKLEDUN AV & KINGSWAY DR,ARKLEDUN at KINGSWAY,0,
43.24,0,2020,-79.86,1031,,,ARKLEDUN AV & KINGSWAY DR,ARKLEDUN at KINGSWAY,0,
43.22,0,2541,-79.70,1032,,,ARVIN AV & # 592,At 596 ARVIN,0,
43.22,0,2541,-79.70,1033,,,ARVIN AV & #547 OPP.,At 560 ARVIN,0,
43.22,0,2541,-79.70,1034,,,ARVIN AV & #565 OPP.,At 576 ARVIN,0,
43.22,0,2541,-79.69,1035,,,ARVIN AV & FRUITLAND ROAD,ARVIN at FRUITLAND,0,
43.25,0,2945,-79.87,1036,,,AUGUSTA ST & JAMES STREET,AUGUSTA at JAMES,0,
43.25,0,2945,-79.86,1037,,,AUGUSTA ST & JOHN STREET,AUGUSTA at JOHN,0,
43.23,0,1213,-79.76,1038,,,BARTON ST E & #2434 W CENTENNIAL PKWY.,At 2434 BARTON,0,
43.23,0,1212,-79.75,1040,,,BARTON ST E & W LAKE AVE,At 2553 BARTON,0,
43.23,0,1261,-79.75,1041,,,BARTON ST E & #2553 OPPOSITE,Opposite 2553 BARTON,0,
43.23,0,1262,-79.74,1042,,,BARTON ST E & #2772 W BELL MANOR ST.,At 2772 BARTON,0,
43.24,0,1220,-79.79,1043,,,BARTON ST E & ADELINE AVENUE,BARTON at ADELINE,0,
43.25,0,1250,-79.81,1044,,,BARTON ST E & AGNES STREET,BARTON at AGNES,0,
43.25,0,1245,-79.83,1045,,,BARTON ST E & BARNESDALE AVENUE,BARTON at BARNESDALE,0,
43.25,0,1228,-79.83,1046,,,BARTON ST E & BARNESDALE AVENUE,BARTON at BARNESDALE,0,
43.23,0,1207,-79.74,1047,,,BARTON ST E & BELL MANOR LOOP,BELL MANOR LOOP PLATFORM 1,0,
43.23,0,1207,-79.74,1048,,,BELLMANOR LOOP & BARTON,BELL MANOR LOOP PLATFORM 2,0,
43.25,0,1248,-79.82,1050,,,BARTON ST E & LINCOLN ST OPP.,BARTON opposite LINCOLN,0,
43.25,0,1244,-79.84,1051,,,BARTON ST E & BIRCH AVENUE,BARTON at BIRCH,0,
43.25,0,1229,-79.83,1052,,,BARTON ST E & BIRCH AVENUE,BARTON at BIRCH,0,
43.23,0,1262,-79.74,1053,,,BARTON ST E & BOW VALLEY DRIVE,BARTON at BOW VALLEY,0,
43.23,0,1210,-79.74,1054,,,BARTON ST E & BOW VALLEY DRIVE OPP.,BARTON opposite BOW VALLEY,0,
43.23,0,1210,-79.74,1055,,,BARTON ST E & BROCKLEY DRIVE,BARTON at BROCKLEY,0,
43.25,0,1247,-79.82,1056,,,BARTON ST E & CAVELL AVENUE,BARTON at CAVELL,0,
43.25,0,1225,-79.82,1057,,,BARTON ST E & CAVELL AVENUE,BARTON at CAVELL,0,
43.23,0,1260,-79.76,1058,,,BARTON ST E & CENTENNIAL PKWY,BARTON at CENTENNIAL,0,
43.23,0,1212,-79.76,1059,,,BARTON ST E & CENTENNIAL PY N,BARTON at CENTENNIAL,0,
43.25,0,1346,-79.83,1060,,,BARTON ST E & CHESTNUT AVENUE,BARTON at CHESTNUT,0,
43.24,0,1251,-79.80,1061,,,BARTON ST E & COPE STREET,BARTON at COPE,0,
43.24,0,1222,-79.80,1062,,,BARTON ST E & COPE STREET,BARTON at COPE,0,
43.23,0,1212,-79.75,1063,,,BARTON ST E & COVINGTON STREET,BARTON at COVINGTON,0,
43.25,0,1229,-79.83,1064,,,BARTON ST E & EARL ST,BARTON at EARL,0,
43.26,0,1230,-79.85,1065,,,BARTON ST E & EMERALD STREET,BARTON at EMERALD,0,
43.26,0,1243,-79.85,1066,,,BARTON ST E & EMERALD STREET,BARTON at EMERALD,0,
43.24,0,1252,-79.79,1067,,,BARTON ST E & FAIRFIELD AVENUE,BARTON opposite FAIRFIELD,0,
43.26,0,1232,-79.85,1068,,,BARTON ST E & FERGUSON AVENUE,BARTON at FERGUSON,0,
43.26,0,1242,-79.85,1069,,,BARTON ST E & FERGUSON AVENUE,BARTON at FERGUSON,0,
43.25,0,1224,-79.81,1070,,,BARTON ST E & FRASER AVENUE OPP.,BARTON opposite FRASER,0,
43.25,0,1250,-79.81,1071,,,BARTON ST E & FREDERICK STREET,BARTON at FREDERICK,0,
43.25,0,1223,-79.81,1072,,,BARTON ST E & FREDERICK STREET OPP.,BARTON opposite FREDERICK,0,
43.25,0,1246,-79.82,1073,,,BARTON ST E & GAGE AVENUE,BARTON at GAGE,0,
43.25,0,1226,-79.82,1074,,,BARTON ST E & GAGE AV N,BARTON at GAGE,0,
43.23,0,2533,-79.74,1075,,,BARTON ST E & GRAYS ROAD,BARTON at GRAYS,0,
43.23,0,2564,-79.73,1076,,,BARTON ST & GRAYS ROAD,BARTON at GRAYS,0,
43.24,0,1251,-79.80,1077,,,BARTON ST E & HARMONY AVENUE,BARTON at HARMONY,0,
43.24,0,1222,-79.80,1078,,,BARTON ST E & HARMONY AVENUE,BARTON at HARMONY,0,
43.26,0,1232,-79.86,1079,,,BARTON ST E & HUGHSON ST N,BARTON at HUGHSON,0,
43.24,0,1214,-79.80,1081,,,BARTON ST E & KENILWORTH AVENUE,BARTON at KENILWORTH,0,
43.24,0,1223,-79.80,1082,,,BARTON ST E & KENILWORTH AVENUE,BARTON at KENILWORTH,0,
43.23,0,1258,-79.76,1083,,,BARTON ST E & KENORA AVENUE,BARTON at KENORA,0,
43.23,0,1213,-79.76,1084,,,BARTON ST E & KENORA AVENUE,BARTON at KENORA,0,
43.23,0,1261,-79.75,1085,,,BARTON ST E & LAKE AVENUE,BARTON at LAKE,0,
43.23,0,1211,-79.75,1086,,,BARTON ST E & LAKE AVENUE,BARTON at LAKE,0,
43.25,0,1246,-79.82,1087,,,BARTON ST E & LEINSTER AVENUE,BARTON at LEINSTER,0,
43.25,0,1227,-79.82,1088,,,BARTON ST E & CHAPPLE,BARTON at CHAPPLE,0,
43.25,0,1225,-79.82,1089,,,BARTON ST E & LINCOLN STREET,BARTON at LINCOLN,0,
43.25,0,1245,-79.83,1090,,,BARTON ST E & LOTTRIDGE STREET,BARTON at LOTTRIDGE,0,
43.25,0,1227,-79.83,1091,,,BARTON ST E & LOTTRIDGE STREET,BARTON at LOTTRIDGE,0,
43.26,0,1232,-79.86,1092,,,BARTON ST E & MARY STREET,BARTON at MARY,0,
43.26,0,1256,-79.86,1093,,,BARTON ST E & MARY STREET,BARTON at MARY,0,
43.25,0,1345,-79.84,1094,,,BARTON ST E & MILTON AVENUE,BARTON at MILTON,0,
43.23,0,1258,-79.77,1095,,,BARTON ST E & NASH RD N,BARTON at NASH,0,
43.23,0,1215,-79.77,1096,,,BARTON ST E & NASH RD N,BARTON at NASH,0,
43.24,0,1351,-79.77,1097,,,BARTON ST E & OSBORNE STREET,BARTON at OSBORNE,0,
43.25,0,1249,-79.81,1098,,,BARTON ST E & OTTAWA STREET,BARTON at OTTAWA,0,
43.25,0,1224,-79.81,1099,,,BARTON ST E & OTTAWA ST N,BARTON at OTTAWA,0,
43.24,0,1220,-79.78,1101,,,BARTON ST E & PARKDALE AVENUE,BARTON at PARKDALE,0,
43.23,0,1261,-79.75,1102,,,BARTON ST E & PARKWAY PLAZA ENTRANCE,BARTON opposite COVINGTON,0,
43.24,0,1250,-79.80,1103,,,BARTON ST E & ROBINS AVENUE,BARTON at ROBINS,0,
43.24,0,1223,-79.80,1104,,,BARTON ST E & ROBINS AVENUE OPP.,BARTON opposite ROBINS,0,
43.25,0,1248,-79.81,1105,,,BARTON ST E & ROSSLYN AVENUE,BARTON at ROSSLYN,0,
43.25,0,1225,-79.81,1106,,,BARTON ST E & ROSSLYN AVENUE,BARTON at ROSSLYN,0,
43.25,0,1238,-79.84,1107,,,BARTON ST E & SANFORD AV N,BARTON at SANFORD,0,
43.25,0,1263,-79.84,1108,,,BARTON ST E & SANFORD AVENUE,BARTON at SANFORD,0,
43.25,0,1346,-79.83,1109,,,BARTON ST E & SHERMAN AVENUE,BARTON at SHERMAN,0,
43.25,0,1228,-79.83,1110,,,BARTON ST E & SHERMAN AVENUE,BARTON at SHERMAN,0,
43.25,0,1243,-79.84,1111,,,BARTON ST E & ST. MATTHEWS AV,BARTON opposite ST. MATTHEWS,0,
43.25,0,1230,-79.84,1112,,,BARTON ST E & ST. MATTHEWS AVENUE,BARTON at ST. MATTHEWS,0,
43.24,0,1252,-79.79,1113,,,BARTON ST E & STRATHEARNE AVENUE,BARTON at STRATHEARNE,0,
43.24,0,1221,-79.79,1114,,,BARTON ST E & STRATHEARNE AVENUE,BARTON at STRATHEARNE,0,
43.24,0,1029,-79.77,1115,,,BARTON ST E & TALBOT ST,BARTON at TALBOT,0,
43.24,0,1218,-79.79,1116,,,BARTON ST E & TOLTON AVENUE,BARTON at TOLTON,0,
43.23,0,1262,-79.74,1117,,,BARTON ST E & VARGA DRIVE,BARTON at VARGA,0,
43.26,0,1231,-79.85,1118,,,BARTON ST E & VICTORIA AVE (@ GENERAL HOSP),BARTON at VICTORIA,0,
43.24,0,1220,-79.79,1120,,,BARTON ST E & WALTER AVENUE OPP.,BARTON opposite WALTER,0,
43.24,0,1029,-79.77,1121,,,BARTON ST E & WAVERLY STREET,BARTON at WAVERLY,0,
43.24,0,1351,-79.77,1122,,,BARTON ST E & WAVERLY STREET,BARTON at WAVERLY,0,
43.26,0,1231,-79.85,1124,,,BARTON ST E & WELLINGTON STREET,BARTON at WELLINGTON,0,
43.26,0,1233,-79.85,1125,,,BARTON ST E & WELLINGTON ST N,BARTON at WELLINGTON,0,
43.25,0,1238,-79.84,1126,,,BARTON ST E & WENTWORTH STREET,BARTON at WENTWORTH,0,
43.25,0,1263,-79.84,1127,,,BARTON ST E & WENTWORTH STREET,BARTON at WENTWORTH,0,
43.22,0,2537,-79.71,1128,,,BARTON ST & #502 W DEWITT RD.,At 502 BARTON,0,
43.22,0,2536,-79.72,1129,,,BARTON ST & APPLE DRIVE,BARTON at APPLE,0,
43.22,0,2543,-79.70,1130,,,BARTON ST & CHELSEA CRESENT OPP.(@#601),BARTON opposite CHELSEA,0,
43.22,0,2560,-79.70,1131,,,BARTON ST & DEWITT RD,BARTON at DEWITT,0,
43.23,0,2534,-79.73,1132,,,BARTON ST & EASTDALE BLVD,BARTON at EASTDALE,0,
43.23,0,2565,-79.73,1133,,,BARTON ST & EASTDALE BLVD OPP.(@#221),BARTON opposite EASTDALE,0,
43.22,0,2534,-79.72,1135,,,BARTON ST & GREEN ROAD,BARTON at GREEN,0,
43.23,0,2565,-79.73,1136,,,BARTON ST & GREEN ROAD,BARTON at GREEN,0,
43.22,0,2536,-79.72,1137,,,BARTON ST & HALE STREET,BARTON at HALE,0,
43.22,0,2563,-79.72,1138,,,BARTON ST & HALE STREET OPP.(@# 361),BARTON opposite HALE,0,
43.22,0,2563,-79.72,1139,,,BARTON ST & HILTON DRIVE,BARTON at HILTON,0,
43.22,0,2537,-79.71,1140,,,BARTON ST & LEASIDE AVENUE OPP.(Op. #441),BARTON opposite LEASIDE,0,
43.22,0,2561,-79.71,1141,,,BARTON ST & LEASIDE AVENUE(at#441),BARTON at LEASIDE,0,
43.22,0,2544,-79.70,1142,,,BARTON ST & LEVI LOOP (# 563 Barton),LEVI LOOP,0,
43.22,0,2538,-79.71,1143,,,BARTON ST & MILLEN ROAD,BARTON at MILLEN,0,
43.22,0,2539,-79.71,1144,,,BARTON ST & MILLEN ROAD,BARTON at MILLEN,0,
43.22,0,2537,-79.71,1145,,,BARTON ST & PURITAN STREET,BARTON at PURITAN,0,
43.22,0,2561,-79.71,1146,,,BARTON ST & PURITAN STREET OPP.,BARTON opposite PURITAN,0,
43.25,0,2922,-79.87,1147,,,BAY ST S & GEORGE ST,BAY opposite GEORGE,0,
43.26,0,2974,-79.87,1149,,,BAY ST N & VINE ST,BAY at VINE,0,
43.26,0,2766,-79.77,1150,,,BEACH BV & # 107 OPP. (N VAN WAGNER'S BEA,Opposite 107 BEACH,0,
43.26,0,2766,-79.77,1151,,,BEACH BV & # 203 OPP.,Opposite 203 BEACH,0,
43.27,0,2685,-79.77,1152,,,BEACH BV & FITCH AV,BEACH at FITCH,0,
43.29,0,2760,-79.79,1153,,,BEACH BV & PANDORA AV OPP.,BEACH opposite PANDORA,0,
43.26,0,2685,-79.77,1154,,,BEACH BV & #203 S DYNES PARK DR.,At 203 BEACH,0,
43.27,0,2764,-79.77,1155,,,BEACH BV & #337 OPP. ( S TOWERS DR.),Opposite 337 BEACH,0,
43.28,0,2687,-79.78,1156,,,BEACH BV & COMET AVENUE OPP. (@#617),BEACH opposite COMET,0,
43.29,0,2760,-79.79,1157,,,BEACH BV & EASTPORT DR,BEACH at EASTPORT,0,
43.29,0,2690,-79.79,1158,,,BEACH BV & EASTPORT DR,BEACH at EASTPORT,0,
43.28,0,2688,-79.78,1159,,,BEACH BV & FOURTH AV,BEACH at FOURTH,0,
43.28,0,2761,-79.78,1160,,,BEACH BV & FOURTH AVENUE OPP.,BEACH opposite FOURTH,0,
43.28,0,2763,-79.78,1161,,,BEACH BV & COMET AV,BEACH at COMET,0,
43.28,0,2687,-79.78,1162,,,BEACH BV & WINDEMERE AV (@#693),BEACH opposite WINDERMERE,0,
43.28,0,2688,-79.78,1163,,,BEACH BV & LOCARNO AVENUE (@#771),BEACH at LOCARNO,0,
43.28,0,2762,-79.78,1164,,,BEACH BV & LOCARNO AVENUE (@ #800),BEACH at LOCARNO,0,
43.29,0,2689,-79.79,1165,,,BEACH BV & PANDORA AVENUE (@#1011),BEACH at PANDORA,0,
43.28,0,2762,-79.78,1166,,,BEACH BV & REMBE AVENUE,BEACH at REMBE,0,
43.27,0,2686,-79.78,1167,,,BEACH BV & SIERRA LANE,BEACH at SIERRA,0,
43.27,0,2763,-79.78,1168,,,BEACH BV & SIERRA LANE OPP.(@ #532),BEACH opposite SIERRA,0,
43.28,0,2689,-79.79,1169,,,BEACH BV & THIRD AVENUE (@#945),BEACH at THIRD,0,
43.28,0,2761,-79.79,1170,,,BEACH BV & THIRD AVENUE OPP. (OP. @ 945),BEACH opposite THIRD,0,
43.27,0,2764,-79.78,1171,,,BEACH BV & TOWERS DRIVE,BEACH at TOWERS,0,
43.27,0,2686,-79.78,1172,,,BEACH BV & TOWERS DRIVE OPP. (@#395),BEACH opposite TOWERS,0,
43.26,0,2684,-79.77,1173,,,BEACH BV & VAN WAGNER'S BEACH RD.,BEACH at VAN WAGNERS BEACH,0,
43.26,0,2766,-79.77,1174,,,BEACH BV & VAN WAGNER'S BEACH RD. / QEW R,BEACH at VAN WAGNERS BEACH,0,
43.25,0,1032,-79.82,1175,,,BEACH RD & ALBEMARLE ST ST,BEACH at ALBEMARLE,0,
43.25,0,1052,-79.82,1176,,,BEACH RD & ALBEMARLE ST,BEACH at ALBEMARLE,0,
43.25,0,2830,-79.80,1177,,,BEACH RD & BAYFIELD AVENUE,BEACH at BAYFIELD,0,
43.25,0,1033,-79.81,1178,,,BEACH RD & DOFASCO GATE #3 OPP. (W of O,BEACH opposite GATE 3,0,
43.25,0,1033,-79.81,1179,,,BEACH RD & OTTAWA STREET,BEACH at OTTAWA,0,
43.25,0,1032,-79.82,1180,,,BEACH RD & ROWANWOOD STREET,BEACH at ROWANWOOD,0,
43.25,0,2830,-79.81,1181,,,BEACH RD & WOODLEIGH AVENUE,BEACH at WOODLEIGH,0,
43.23,0,1284,-79.78,1182,,,BELAND RD & DUNSMURE ROAD,BELAND at DUNSMURE,0,
43.25,0,2954,-79.87,1184,,,BOLD ST & JAMES STREET,BOLD at JAMES,0,
43.27,0,1342,-79.97,1185,,,BOND ST S & KING STREET,BOND at KING,0,
43.28,0,1327,-79.87,1188,,,BOTANICAL DR & SPRING GARDENS ROAD,BOTANICAL at SPRING GARDENS,0,
43.24,0,1289,-79.80,1189,,,BRITANNIA AV & COPE STREET,BRITANNIA opposite COPE,0,
43.24,0,1279,-79.80,1190,,,BRITANNIA AV & FAIRFIELD AVENUE,BRITANNIA at FAIRFIELD,0,
43.24,0,1289,-79.80,1191,,,BRITANNIA AV & FAIRFIELD AVENUE,BRITANNIA at FAIRFIELD,0,
43.24,0,1280,-79.79,1192,,,BRITANNIA AV & STRATHEARNE AVENUE,BRITANNIA at STRATHEARNE,0,
43.24,0,1279,-79.80,1193,,,BRITANNIA AV & TRAGINA AVENUE,BRITANNIA at TRAGINA,0,
43.25,0,2805,-79.80,1196,,,BURLINGTON ST E & #1330 Dofasco Office,At 1330 BURLINGTON,0,
43.25,0,2805,-79.80,1197,,,BURLINGTON ST E & DOFASCO RD,BURLINGTON at DOFASCO DR,0,
43.25,0,2679,-79.79,1198,,,BURLINGTON ST E & #1590,At 1590 BURLINGTON,0,
43.25,0,2769,-79.78,1199,,,BURLINGTON ST E & #1755 E STRATHEARNE AVE.,At 1755 BURLINGTON,0,
43.25,0,2681,-79.78,1200,,,BURLINGTON ST E & #1818,At 1818 BURLINGTON,0,
43.25,0,2769,-79.78,1201,,,BURLINGTON ST E & # 1835,At 1835 BURLINGTON,0,
43.26,0,1023,-79.83,1202,,,BURLINGTON ST E & BIRCH AV,BURLINGTON at BIRCH,0,
43.26,0,1057,-79.83,1203,,,BURLINGTON ST E & BIRCH AVENUE (OPP) (@#651),BURLINGTON opposite BIRCH,0,
43.26,0,1025,-79.82,1204,,,BURLINGTON ST E & BIRMINGHAM STREET,BURLINGTON at BIRMINGHAM,0,
43.25,0,2791,-79.80,1205,,,BURLINGTON ST E & DOFASCO GATE #10,BURLINGTON at GATE 10,0,
43.27,0,1060,-79.85,1206,,,BURLINGTON ST E & FERGUSON AVENUE,BURLINGTON at FERGUSON,0,
43.27,0,1020,-79.85,1207,,,BURLINGTON ST E & FERGUSON AVENUE,BURLINGTON at FERGUSON,0,
43.25,0,2770,-79.79,1208,,,BURLINGTON ST E & TIRE RD OPP.,BURLINGTON opposite TIRE,0,
43.25,0,2679,-79.79,1209,,,BURLINGTON ST E & TIRE RD,BURLINGTON at TIRE,0,
43.26,0,1057,-79.83,1210,,,BURLINGTON ST E & HILLYARD STREET,BURLINGTON at HILLYARD,0,
43.26,0,1023,-79.84,1211,,,BURLINGTON ST E & HILLYARD STREET,BURLINGTON at HILLYARD,0,
43.25,0,2770,-79.79,1212,,,BURLINGTON ST E & HOBSON ROAD,BURLINGTON at HOBSON,0,
43.27,0,1061,-79.85,1213,,,BURLINGTON ST E & JOHN STREET,BURLINGTON at JOHN,0,
43.27,0,1019,-79.85,1214,,,BURLINGTON ST E & JOHN STREET,BURLINGTON at JOHN,0,
43.26,0,1025,-79.82,1215,,,BURLINGTON ST E & # 796,At 796 BURLINGTON,0,
43.27,0,1061,-79.85,1216,,,BURLINGTON ST E & MARY STREET,BURLINGTON at MARY,0,
43.27,0,1020,-79.85,1217,,,BURLINGTON ST E & MARY STREET,BURLINGTON at MARY,0,
43.26,0,1023,-79.83,1218,,,BURLINGTON ST E & MCKINSTRY STREET,BURLINGTON at MCKINSTRY,0,
43.26,0,1057,-79.83,1219,,,BURLINGTON ST E & MCKINSTRY STREET OPP. (@#601),BURLINGTON opposite MCKINSTRY,0,
43.26,0,2804,-79.81,1220,,,BURLINGTON ST E & OTTAWA STREET,BURLINGTON at OTTAWA,0,
43.25,0,2681,-79.78,1221,,,BURLINGTON ST E & PARKDALE AV N,BURLINGTON at PARKDALE,0,
43.25,0,2769,-79.78,1222,,,BURLINGTON ST E & PARKDALE AV N,BURLINGTON at PARKDALE,0,
43.26,0,2804,-79.81,1223,,,BURLINGTON ST E & #1141,At 1141 BURLINGTON,0,
43.26,0,1056,-79.83,1224,,,BURLINGTON ST E & SHERMAN AV N,BURLINGTON at SHERMAN,0,
43.26,0,1024,-79.83,1225,,,BURLINGTON ST E & SHERMAN AVENUE,BURLINGTON at SHERMAN,0,
43.25,0,2806,-79.80,1226,,,BURLINGTON ST E & STAPLETON AV,BURLINGTON at STAPLETON,0,
43.25,0,2791,-79.80,1227,,,BURLINGTON ST E & STAPLETON AV (Wof Kenilworth),BURLINGTON opposite STAPLETON,0,
43.25,0,2679,-79.79,1228,,,BURLINGTON ST E & STRATHEARNE AV,BURLINGTON at STRATHEARNE,0,
43.25,0,2770,-79.79,1229,,,BURLINGTON ST E & STRATHEARNE AVENUE,BURLINGTON at STRATHEARNE,0,
43.26,0,1059,-79.84,1230,,,BURLINGTON ST E & VICTORIA AVENUE,BURLINGTON at VICTORIA,0,
43.26,0,1055,-79.84,1231,,,BURLINGTON ST E & VICTORIA AV N,BURLINGTON at VICTORIA,0,
43.27,0,1021,-79.85,1232,,,BURLINGTON ST E & WELLINGTON STREET,BURLINGTON at WELLINGTON,0,
43.27,0,1060,-79.85,1233,,,BURLINGTON ST E & WELLINGTON ST N,BURLINGTON opposite WELLINGTON,0,
43.26,0,1058,-79.84,1234,,,BURLINGTON ST E & WENTWORTH STREET,BURLINGTON at WENTWORTH,0,
43.26,0,1022,-79.84,1235,,,BURLINGTON ST E & WENTWORTH STREET,BURLINGTON at WENTWORTH,0,
43.26,0,1056,-79.82,1236,,,INDUSTRIAL DR & WILCOX ST,INDUSTRIAL at WILCOX,0,
43.26,0,1025,-79.82,1237,,,BURLINGTON ST E & WILCOX STREET OPP.,BURLINGTON opposite WILCOX,0,
43.26,0,1059,-79.84,1238,,,BURLINGTON ST E & WILFRED ST,BURLINGTON at WILFRED,0,
43.26,0,1055,-79.84,1239,,,BURLINGTON ST E & MACALLUM ST,BURLINGTON at WILFRED,0,
43.29,0,2759,-79.80,1242,,,CCIW & LAKESHORE RD,CCIW at ADMINISTRATION BUILDING,0,
43.30,0,2759,-79.80,1243,,,CCIW & LAKESHORE RD,CCIW at TECHNOLOGY BUILDING,0,
43.24,0,1276,-79.82,1244,,,CANNON ST E & BALMORAL AVENUE (@#1124),CANNON at BALMORAL,0,
43.25,0,1273,-79.82,1245,,,CANNON ST E & BALSAM AVENUE,CANNON at BALSAM,0,
43.25,0,1295,-79.82,1246,,,CANNON ST E & BALSAM AVENUE,CANNON at BALSAM,0,
43.25,0,1272,-79.83,1247,,,CANNON ST E & BARNESDALE AVENUE,CANNON at BARNESDALE,0,
43.25,0,1296,-79.83,1248,,,CANNON ST E & BARNESDALE AVENUE (@#777),CANNON at BARNESDALE,0,
43.24,0,1275,-79.82,1249,,,CANNON ST E & BELMONT AVENUE,CANNON at BELMONT,0,
43.24,0,1293,-79.82,1250,,,CANNON ST E & BELVIEW AVENUE,CANNON at BELVIEW,0,
43.25,0,1297,-79.84,1251,,,CANNON ST E & BIRCH AVENUE,CANNON at BIRCH,0,
43.24,0,1278,-79.80,1252,,,CANNON ST E & CAMERON AVENUE,CANNON at CAMERON,0,
43.24,0,1290,-79.80,1253,,,CANNON ST E & CAMERON AVENUE,CANNON at CAMERON,0,
43.24,0,1275,-79.82,1254,,,CANNON ST E & EAST BEND AVENUE,CANNON at EAST BEND,0,
43.24,0,1293,-79.82,1255,,,CANNON ST E & EAST BEND AV OPP. (@#1039),CANNON opposite EAST BEND,0,
43.24,0,1277,-79.81,1256,,,CANNON ST E & EDGEMONT STREET,CANNON at EDGEMONT,0,
43.24,0,1292,-79.81,1257,,,CANNON ST E & EDGEMOUNT STREET OPP. (@#1243),CANNON opposite EDGEMONT,0,
43.25,0,1300,-79.85,1258,,,CANNON ST E & EMERALD STREET,CANNON at EMERALD,0,
43.24,0,1277,-79.81,1259,,,CANNON ST E & PROVINCE ST N,CANNON opposite PROVINCE,0,
43.24,0,1291,-79.81,1260,,,CANNON ST E & FREDERICK STREET,CANNON at FREDERICK,0,
43.24,0,1274,-79.82,1261,,,CANNON ST E & GAGE AVENUE,CANNON at GAGE,0,
43.24,0,1294,-79.82,1262,,,CANNON ST E & GAGE AV N,CANNON at GAGE,0,
43.25,0,1297,-79.84,1263,,,CANNON ST E & GIBSON AVENUE,CANNON at GIBSON,0,
43.26,0,2977,-79.87,1264,,,CANNON ST W & HESS STREET,CANNON at HESS,0,
43.24,0,1278,-79.80,1265,,,CANNON ST E & KENILWORTH AVENUE N.,CANNON at KENILWORTH,0,
43.24,0,1290,-79.80,1266,,,CANNON ST E & KENILWORTH AVENUE N.,CANNON at KENILWORTH,0,
43.25,0,1272,-79.83,1267,,,CANNON ST E & LOTTRIDGE STREET,CANNON at LOTTRIDGE,0,
43.25,0,1295,-79.83,1268,,,CANNON ST E & LOTTRIDGE STREET,CANNON at LOTTRIDGE,0,
43.24,0,1276,-79.81,1269,,,CANNON ST E & OTTAWA ST,CANNON at OTTAWA,0,
43.24,0,1292,-79.81,1270,,,CANNON ST E & OTTAWA STREET,CANNON at OTTAWA,0,
43.24,0,1277,-79.81,1271,,,CANNON ST E & ROBINS AVENUE,CANNON at ROBINS,0,
43.24,0,1291,-79.80,1272,,,CANNON ST E & ROBINS AVENUE,CANNON at ROBINS,0,
43.24,0,1271,-79.82,1273,,,CANNON ST E & ROSSLYN AVENUE,CANNON at ROSSLYN,0,
43.25,0,1298,-79.84,1274,,,CANNON ST E & SANFORD AVENUE,CANNON at SANFORD,0,
43.25,0,1296,-79.83,1275,,,CANNON ST E & SHERMAN AVENUE,CANNON at SHERMAN,0,
43.25,0,1300,-79.85,1276,,,CANNON ST E & SMITH AVENUE,CANNON at SMITH,0,
43.25,0,1300,-79.85,1277,,,CANNON ST E & VICTORIA AVENUE,CANNON at VICTORIA,0,
43.25,0,1299,-79.84,1278,,,CANNON ST E & WENTWORTH STREET,CANNON at WENTWORTH,0,
43.22,0,2572,-79.76,1279,,,58 CENTENNIAL PY S & FELKER AV,CENTENNIAL opposite FELKER,0,
43.23,0,2386,-79.75,1280,,,CENTENNIAL PY N & ARROWSMITH ROAD,CENTENNIAL at ARROWSMITH,0,
43.23,0,2380,-79.75,1281,,,CENTENNIAL PY N & ARROWSMITH ROAD (OPP),CENTENNIAL opposite ARROWSMITH,0,
43.23,0,2386,-79.76,1282,,,CENTENNIAL PY N & BARTON STREET (@# 247),CENTENNIAL at BARTON,0,
43.23,0,2379,-79.76,1283,,,CENTENNIAL PY N & BARTON ST E,CENTENNIAL at BARTON,0,
43.23,0,2383,-79.76,1284,,,CENTENNIAL PY N & DELAWANA DRIVE,CENTENNIAL at DELAWANA,0,
43.23,0,2379,-79.76,1285,,,CENTENNIAL PY N & DELAWANA DRIVE,CENTENNIAL at DELAWANA,0,
43.23,0,2383,-79.76,1286,,,CENTENNIAL PY N & EASTGATE COURT,CENTENNIAL at EASTGATE,0,
43.22,0,2598,-79.76,1287,,,CENTENNIAL PY S & FELKER AVENUE (@#60),CENTENNIAL at FELKER,0,
43.22,0,2596,-79.76,1288,,,CENTENNIAL PY S & GLENVIEW DRIVE,CENTENNIAL at GLENVIEW,0,
43.24,0,2380,-79.75,1290,,,CENTENNIAL PY N & GODERICH ROAD (OPP),CENTENNIAL opposite GODERICH,0,
43.22,0,2571,-79.76,1292,,,CENTENNIAL PY S & NEIL AVENUE,CENTENNIAL at NEIL,0,
43.22,0,2598,-79.76,1293,,,CENTENNIAL PY S & NEIL AVENUE,CENTENNIAL at NEIL,0,
43.22,0,2572,-79.76,1294,,,CENTENNIAL PY S & ORLANDA DRIVE,CENTENNIAL at ORLANDA,0,
43.22,0,2596,-79.76,1295,,,CENTENNIAL PY S & ORLANDA DRIVE OPP.,CENTENNIAL opposite ORLANDA,0,
43.22,0,2572,-79.76,1296,,,CENTENNIAL PY S & PLEASANT AVENUE,CENTENNIAL at PLEASANT,0,
43.22,0,2378,-79.76,1297,,,CENTENNIAL PY N & QUEENSTON ROAD (164m),CENTENNIAL at QUEENSTON,0,
43.23,0,2379,-79.76,1298,,,CENTENNIAL PY N & VIOLET DRIVE,CENTENNIAL at VIOLET,0,
43.25,0,2971,-79.88,1299,,,CHARLTON AV W & #370 E DUNDURN ST.,At 370 CHARLTON,0,
43.25,0,2949,-79.87,1300,,,CHARLTON AV W & BAY ST S,CHARLTON at BAY,0,
43.25,0,2949,-79.87,1301,,,CHARLTON AV W & CAROLINE ST S,CHARLTON at CAROLINE,0,
43.25,0,7001,-79.89,1302,,,CHARLTON AV W & DUNDURN STREET,CHARLTON at DUNDURN,0,
43.25,0,2950,-79.88,1303,,,CHARLTON AV W & HESS STREET,CHARLTON at HESS,0,
43.25,0,2963,-79.88,1304,,,CHATHAM ST & #47 W LOCKE ST.,At 47 CHATHAM,0,
43.25,0,2963,-79.88,1306,,,CHATHAM ST & LOCKE STREET,CHATHAM at LOCKE,0,
43.23,0,2318,-79.92,1307,,,CHEDMAC DR & CHEDMAC DRIVE,CHEDMAC at CHEDMAC,0,
43.23,0,2320,-79.92,1308,,,CHEDMAC DR & EXTENDICARE (#90),At 90 CHEDMAC,0,
43.23,0,2301,-79.91,1309,,,CHEDMAC DR & HOLBROOK BLDG PARKING LOT,CHEDMAC at HOLBROOK BUILDING,0,
43.23,0,2319,-79.91,1311,,,CHEDMAC DR & RICE AV,CHEDMAC at RICE,0,
43.23,0,2318,-79.92,1312,,,CHEDMAC DR & SOUTHRIDGE DR OPP.,CHEDMAC opposite SOUTHRIDGE,0,
43.21,0,2924,-79.89,1313,,,CHESLEY ST & CHESTER AVENUE,CHESLEY at CHESTER,0,
43.21,0,2908,-79.89,1315,,,CHESLEY ST & STONE CHURCH ROAD WEST,CHESLEY at STONE CHURCH,0,
43.21,0,2908,-79.89,1316,,,CHESTER AV & ANNABELLE STREET,CHESTER at ANNABELLE,0,
43.21,0,2908,-79.89,1317,,,CHESTER AV & CHESLEY STREET,CHESTER at CHESLEY,0,
43.21,0,2907,-79.89,1318,,,CHESTER AV & WEST 5TH STREET,CHESTER at WEST 5TH,0,
43.21,0,2924,-79.89,1319,,,CHESTER AV & WEST 5TH STREET,CHESTER at WEST 5TH,0,
43.25,0,1196,-79.93,1320,,,MAIN ST W & MAIN ST. WEST,MAIN opposite MAIN,0,
43.22,0,1158,-79.80,1321,,,COCHRANE RD & DUNDONALD AVENUE,COCHRANE at DUNDONALD,0,
43.22,0,1160,-79.80,1322,,,COCHRANE RD & HIXON ROAD (@# 445),COCHRANE at HIXON,0,
43.23,0,1161,-79.80,1323,,,COCHRANE RD & KING STREET,COCHRANE at KING,0,
43.22,0,1161,-79.80,1324,,,COCHRANE RD & LAWRENCE ROAD,COCHRANE at LAWRENCE,0,
43.22,0,1160,-79.80,1325,,,COCHRANE RD & MONTROSE AVENUE (Op. # 498),COCHRANE at MONTROSE,0,
43.24,0,2083,-79.85,1326,,,CONCESSION ST & BELWOOD AVENUE,CONCESSION at BELWOOD,0,
43.24,0,2082,-79.84,1327,,,CONCESSION ST & HAMILTON AVE,CONCESSION at HAMILTON,0,
43.24,0,2087,-79.86,1328,,,CONCESSION ST & EAST 11TH ST OPP.(OP. # 284),CONCESSION opposite EAST 11TH,0,
43.24,0,2088,-79.86,1329,,,CONCESSION ST & EAST 11TH ST OPP. (OP. # 284),CONCESSION opposite EAST 11TH,0,
43.24,0,2034,-79.86,1330,,,CONCESSION ST & EAST 13TH STREET,CONCESSION at EAST 13TH,0,
43.24,0,2036,-79.86,1331,,,CONCESSION ST & EAST 13TH STREET,CONCESSION at EAST 13TH,0,
43.24,0,2085,-79.86,1332,,,CONCESSION ST & EAST 13TH ST OPP.( OP. #340),CONCESSION opposite EAST 13TH,0,
43.24,0,2034,-79.85,1333,,,CONCESSION ST & EAST 15TH STREET,CONCESSION at EAST 15TH,0,
43.24,0,2036,-79.85,1334,,,CONCESSION ST & EAST 15TH STREET,CONCESSION at EAST 15TH,0,
43.24,0,2037,-79.85,1335,,,CONCESSION ST & EAST 17TH ST,CONCESSION at EAST 17TH,0,
43.24,0,2038,-79.85,1336,,,CONCESSION ST & EAST 17TH ST,CONCESSION at EAST 17TH,0,
43.24,0,2083,-79.85,1337,,,CONCESSION ST & EAST 19TH OPP.,CONCESSION opposite EAST 19TH,0,
43.24,0,2039,-79.85,1338,,,CONCESSION ST & EAST 22ND STREET,CONCESSION at EAST 22ND,0,
43.24,0,2039,-79.84,1339,,,CONCESSION ST & EAST 24TH ST,CONCESSION at EAST 24TH,0,
43.23,0,2040,-79.84,1340,,,CONCESSION ST & EAST 26TH STREET,CONCESSION at EAST 26TH,0,
43.23,0,2043,-79.84,1342,,,CONCESSION ST & EAST 33RD STREET,CONCESSION at EAST 33RD,0,
43.23,0,2079,-79.84,1343,,,CONCESSION ST & EAST 33RD ST OPP. (OP. # 806),CONCESSION opposite EAST 33RD,0,
43.23,0,2078,-79.83,1344,,,CONCESSION ST & EAST 36TH ST,CONCESSION at EAST 36TH,0,
43.23,0,2044,-79.83,1345,,,CONCESSION ST & EAST 36TH STREET,CONCESSION at EAST 36TH,0,
43.23,0,2044,-79.83,1346,,,CONCESSION ST & EAST 38TH STREET,CONCESSION at EAST 38TH,0,
43.23,0,2081,-79.84,1347,,,CONCESSION ST & HENDERSON HOSPITAL @#711,CONCESSION at JURAVINSKI HOSPITAL,0,
43.23,0,2078,-79.83,1348,,,CONCESSION ST & MOUNTAIN PARK AVENUE,CONCESSION at MOUNTAIN PARK,0,
43.23,0,2081,-79.84,1349,,,CONCESSION ST & POPLAR AVENUE,CONCESSION at POPLAR,0,
43.23,0,2080,-79.84,1350,,,CONCESSION ST & UPPER SHERMAN AVENUE,CONCESSION at UPPER SHERMAN,0,
43.23,0,2042,-79.84,1351,,,CONCESSION ST & UPPER SHERMAN AVENUE,CONCESSION at UPPER SHERMAN,0,
43.24,0,2029,-79.86,1352,,,CONCESSION ST & UPPER WELLINGTON STREET,CONCESSION at UPPER WELLINGTON,0,
43.24,0,2030,-79.86,1353,,,CONCESSION ST & UPPER WELLINGTON ST,CONCESSION at UPPER WELLINGTON,0,
43.24,0,2082,-79.85,1354,,,CONCESSION ST & SUMMIT AVE,CONCESSION at SUMMIT,0,
43.24,0,2037,-79.85,1356,,,CONCESSION ST & UPPER WENTWORTH ST,CONCESSION at UPPER WENTWORTH,0,
43.26,0,1103,-79.94,1358,,,COOTES DR & DUNDAS STREET,COOTES at DUNDAS,0,
43.26,0,1199,-79.94,1359,,,COOTES DR & EAST STREET,COOTES at EAST,0,
43.26,0,1199,-79.94,1360,,,COOTES DR & KING STREET,COOTES at KING,0,
43.25,0,1371,-79.98,1361,,,DAVIDSON BV & GOVERNOR'S ROAD,DAVIDSON at GOVERNORS,0,
43.24,0,1128,-79.84,1362,,,DELAWARE AV & BURRIS STREET,DELAWARE at BURRIS,0,
43.24,0,1171,-79.84,1363,,,DELAWARE AV & BURRIS STREET,DELAWARE at BURRIS,0,
43.24,0,1129,-79.84,1364,,,DELAWARE AV & HOLTON AVENUE,DELAWARE at HOLTON,0,
43.24,0,1170,-79.84,1365,,,DELAWARE AV & HOLTON AVENUE,DELAWARE at HOLTON,0,
43.24,0,1128,-79.84,1366,,,DELAWARE AV & MYRTLE AVENUE,DELAWARE at MYRTLE,0,
43.24,0,1171,-79.84,1368,,,DELAWARE AV & SANFORD AVENUE,DELAWARE at SANFORD,0,
43.24,0,1129,-79.84,1369,,,DELAWARE AV & SHERMAN AVENUE,DELAWARE at SHERMAN,0,
43.24,0,1172,-79.85,1370,,,DELAWARE AV & WENTWORTH STREET,DELAWARE at WENTWORTH,0,
43.24,0,2878,-79.89,1371,,,DENLOW AV & PLEASANT AVENUE,DENLOW opposite PLEASANT,0,
43.25,0,1362,-79.81,1372,,,DEPEW ST & BEACH ROAD,DEPEW at BEACH,0,
43.26,0,1361,-79.81,1373,,,DEPEW ST & BURLINGTON STREET,DEPEW at BURLINGTON,0,
43.26,0,1360,-79.81,1374,,,DEPEW ST & BURLINGTON STREET,DEPEW at BURLINGTON,0,
43.25,0,1363,-79.81,1375,,,DEPEW ST & GERTRUDE ST,DEPEW at GERTRUDE,0,
43.25,0,1361,-79.81,1376,,,DEPEW ST & GERTRUDE ST - GUARD SHACK #,DEPEW at GERTRUDE,0,
43.26,0,1360,-79.81,1377,,,DEPEW ST & INDUSTRIAL DRIVE,DEPEW at INDUSTRIAL,0,
43.22,0,2540,-79.70,1378,,,DEWITT RD & ARVIN ROAD,DEWITT at ARVIN,0,
43.25,0,1303,-79.87,1379,,,DUKE ST & MACNAB STREET (@#20),DUKE at MACNAB,0,
43.25,0,1303,-79.87,1380,,,DUKE ST & PARK ST S,DUKE at PARK,0,
43.26,0,1398,-79.95,1381,,,DUNDAS ST & MAIN STREET (@#18),DUNDAS at MAIN,0,
43.26,0,1103,-79.94,1382,,,DUNDAS ST & THORPE STREET,DUNDAS at THORPE,0,
43.26,0,1398,-79.94,1383,,,DUNDAS ST & THORPE STREET,DUNDAS at THORPE,0,
43.26,0,1103,-79.95,1384,,,DUNDAS ST & WEST STREET (@#27),DUNDAS at WEST,0,
43.26,0,1398,-79.94,1385,,,DUNDAS ST & WEST STREET OPP. (@#42),DUNDAS opposite WEST,0,
43.26,0,2994,-79.88,1387,,,DUNDURN ST N & JONES STREET,DUNDURN at JONES,0,
43.26,0,2980,-79.88,1388,,,DUNDURN ST N & SUNSET AVENUE,DUNDURN at SUNSET,0,
43.25,0,2962,-79.89,1389,,,DUNDURN ST S & ABERDEEN AV,DUNDURN at ABERDEEN,0,
43.25,0,2972,-79.89,1390,,,DUNDURN ST S & ABERDEEN AVENUE,DUNDURN at ABERDEEN,0,
43.24,0,2973,-79.89,1392,,,DUNDURN ST S & GLENSIDE AVENUE,DUNDURN opposite ORCHARD HILL,0,
43.24,0,2961,-79.89,1393,,,DUNDURN ST S & HILLCREST AVENUE,DUNDURN at HILLCREST,0,
43.24,0,2973,-79.89,1394,,,DUNDURN ST S & HILLCREST AVENUE (@#524),DUNDURN at HILLCREST,0,
43.24,0,2960,-79.89,1395,,,DUNDURN ST S & HILLCREST LOOP,HILLCREST LOOP,0,
43.24,0,2961,-79.89,1396,,,DUNDURN ST S & ORCHARD HILL,DUNDURN at ORCHARD HILL,0,
43.25,0,2962,-79.89,1397,,,DUNDURN ST S & STANLEY AVENUE,DUNDURN at STANLEY,0,
43.22,0,2570,-79.76,1399,,2,,EASTGATE TERMINAL PLATFORM 2,0,
43.22,0,2512,-79.76,1400,,2,QUEENSTON RD & PLATFORM 7,EASTGATE TERMINAL PLATFORM 7,0,
43.22,0,2390,-79.76,1402,,2,,EASTGATE TERMINAL PLATFORM 1,0,
43.22,0,2056,-79.76,1403,,2,,EASTGATE TERMINAL PLATFORM 4,0,
43.22,0,4401,-79.76,1405,,2,,EASTGATE TERMINAL PLATFORM 3,0,
43.22,0,2001,-79.76,1406,,2,PRIVATE RD & PLATFORM 2,EASTGATE TERMINAL PLATFORM 2,0,
43.30,0,2758,-79.80,1407,,,EASTPORT DR & CCIW,EASTPORT at CCIW,0,
43.30,0,2691,-79.79,1408,,,LAKESHORE RD & EASTPORT DRIVE,EASTPORT at LAKESHORE,0,
43.32,0,2697,-79.79,1409,,,ELIZABETH ST & LAKESHORE RD,ELIZABETH at LAKESHORE,0,
43.25,0,1118,-79.91,1411,,,EMERSON ST & MAIN STREET,EMERSON at MAIN,0,
43.25,0,1186,-79.92,1412,,,EMERSON ST & ROYAL AVENUE,EMERSON at ROYAL,0,
43.25,0,1116,-79.92,1413,,,EMERSON ST & ROYAL AVENUE,EMERSON at ROYAL,0,
43.25,0,1117,-79.92,1415,,,EMERSON ST & SUSSEX ST,EMERSON at SUSSEX,0,
43.25,0,1186,-79.92,1416,,,EMERSON ST & WARD AVENUE,EMERSON at WARD,0,
43.25,0,1117,-79.92,1417,,,EMERSON ST & WARD AVENUE,EMERSON at WARD,0,
43.22,0,2150,-79.83,1418,,,FENNELL AV E & CASTLEFIELD DRIVE,FENNELL at CASTLEFIELD,0,
43.23,0,2816,-79.86,1419,,,FENNELL AV E & EAST 43RD ST,FENNELL at EAST 12TH,0,
43.23,0,2035,-79.86,1420,,,FENNELL AV E & EAST 13TH OPP. (@#300),FENNELL opposite EAST 13TH,0,
43.23,0,2816,-79.86,1421,,,FENNELL AV E & EAST 14TH STREET,FENNELL at EAST 14TH,0,
43.23,0,2041,-79.86,1422,,,FENNELL AV E & EAST 15TH STREET,FENNELL at EAST 15TH,0,
43.23,0,2815,-79.86,1423,,,FENNELL AV E & EAST 15TH STREET,FENNELL at EAST 15TH,0,
43.23,0,2041,-79.86,1424,,,FENNELL AV E & EAST 18TH STREET,FENNELL at EAST 18TH,0,
43.23,0,2815,-79.85,1425,,,FENNELL AV E & EAST 18TH STREET,FENNELL at EAST 18TH,0,
43.23,0,2045,-79.85,1426,,,FENNELL AV E & EAST 22ND STREET,FENNELL at EAST 22ND,0,
43.23,0,2813,-79.85,1427,,,FENNELL AV E & EAST 22ND STREET,FENNELL at EAST 22ND,0,
43.23,0,2045,-79.85,1428,,,FENNELL AV E & EAST 24TH STREET,FENNELL at EAST 24TH,0,
43.23,0,2813,-79.85,1429,,,FENNELL AV E & EAST 24TH STREET,FENNELL at EAST 24TH,0,
43.23,0,2813,-79.85,1430,,,FENNELL AV E & EAST 26TH STREET,FENNELL at EAST 26TH,0,
43.22,0,2055,-79.84,1431,,,FENNELL AV E & EAST 32ND STREET,FENNELL at EAST 32ND,0,
43.22,0,2811,-79.84,1432,,,FENNELL AV E & EAST 33RD STREET,FENNELL at EAST 33RD,0,
43.22,0,2055,-79.84,1433,,,FENNELL AV E & EAST 34TH STREET,FENNELL at EAST 34TH,0,
43.22,0,2811,-79.84,1434,,,FENNELL AV E & EAST 35TH STREET,FENNELL at EAST 35TH,0,
43.22,0,2057,-79.84,1435,,,FENNELL AV E & EAST 37TH STREET,FENNELL at EAST 37TH,0,
43.22,0,2811,-79.84,1436,,,FENNELL AV E & EAST 37TH STREET,FENNELL at EAST 37TH,0,
43.22,0,2150,-79.83,1437,,,FENNELL AV E & EAST 43RD STREET,FENNELL at EAST 43RD,0,
43.22,0,2809,-79.83,1438,,,FENNELL AV E & EAST 43RD ST,FENNELL at EAST 43RD,0,
43.22,0,2150,-79.83,1439,,,FENNELL AV E & EAST 45TH STREET,FENNELL at EAST 45TH,0,
43.22,0,2809,-79.83,1440,,,FENNELL AV E & EAST 45TH STREET,FENNELL at EAST 45TH,0,
43.23,0,2818,-79.87,1441,,,FENNELL AV E & EAST 5TH STREET,FENNELL at EAST 5TH,0,
43.23,0,2818,-79.87,1442,,,FENNELL AV E & EAST 8TH STREET,FENNELL at EAST 8TH,0,
43.22,0,2053,-79.82,1443,,,FENNELL AV E & GLENFORD AVENUE,FENNELL at GLENFORD,0,
43.22,0,2112,-79.82,1444,,,FENNELL AV E & GLENFORD AVENUE OPP.(@#1165),FENNELL opposite GLENFORD,0,
43.22,0,2070,-79.82,1445,,,FENNELL AV E & HIGH STREET,FENNELL at HIGH,0,
43.22,0,2053,-79.82,1446,,,FENNELL AV E & HIGH STREET,FENNELL at HIGH,0,
43.23,0,2033,-79.87,1447,,,FENNELL AV E & HOOVER CRESCENT,FENNELL at HOOVER,0,
43.23,0,2032,-79.87,1448,,,FENNELL AV E & MOUNTAIN MALL - FENNELL ENTRAN,FENNELL at MOUNTAIN PLAZA,0,
43.22,0,2070,-79.82,1449,,,FENNELL AV E & PRINCETON DRIVE,FENNELL at PRINCETON,0,
43.22,0,2054,-79.82,1450,,,FENNELL AV E & PRINCETON DRIVE OPP.(@#1234),FENNELL opposite PRINCETON,0,
43.22,0,2809,-79.83,1451,,,FENNELL AV E & CASTLEFIELD DR OPP. (@#1076),FENNELL opposite CASTLEFIELD,0,
43.23,0,2052,-79.85,1452,,,FENNELL AV E & SHADYSIDE AVENUE,FENNELL at SHADYSIDE,0,
43.22,0,2054,-79.82,1453,,,FENNELL AV E & SHIRLEY STREET,FENNELL at SHIRLEY,0,
43.22,0,2070,-79.82,1454,,,FENNELL AV E & SHIRLEY STREET (OPP),FENNELL opposite SHIRLEY,0,
43.22,0,2057,-79.83,1455,,,FENNELL AV E & UPPER GAGE AVENUE,FENNELL at UPPER GAGE,0,
43.22,0,2810,-79.83,1456,,,FENNELL AV E & UPPER GAGE AVENUE,FENNELL at UPPER GAGE,0,
43.23,0,2819,-79.87,1457,,,FENNELL AV E & UPPER JAMES STREET,FENNELL at UPPER JAMES,0,
43.22,0,2112,-79.82,1458,,,FENNELL AV E & UPPER OTTAWA STREET,FENNELL at UPPER OTTAWA,0,
43.22,0,2114,-79.82,1459,,,FENNELL AV E & UPPER OTTAWA STREET,FENNELL at UPPER OTTAWA,0,
43.23,0,2052,-79.84,1460,,,FENNELL AV E & UPPER SHERMAN AVENUE,FENNELL at UPPER SHERMAN,0,
43.23,0,2812,-79.84,1461,,,FENNELL AV E & UPPER SHERMAN AVENUE,FENNELL at UPPER SHERMAN,0,
43.23,0,2033,-79.86,1462,,,FENNELL AV E & UPPER WELLINGTON STREET,FENNELL at UPPER WELLINGTON,0,
43.23,0,2817,-79.86,1463,,,FENNELL AV E & UPPER WELLINGTON STREET,FENNELL at UPPER WELLINGTON,0,
43.23,0,2047,-79.85,1464,,,FENNELL AV E & UPPER WENTWORTH STREET,FENNELL at UPPER WENTWORTH,0,
43.23,0,2814,-79.85,1465,,,FENNELL AV E & UPPER WENTWORTH STREET,FENNELL at UPPER WENTWORTH,0,
43.23,0,2032,-79.87,1466,,,FENNELL AV E & WARREN AVENUE,FENNELL at WARREN,0,
43.24,0,2008,-79.89,1467,,,FENNELL AV W & AUCHMAR RD OPP.,FENNELL opposite AUCHMAR,0,
43.24,0,2822,-79.88,1468,,,FENNELL AV W & #250 E AUCHMAR RD.,At 250 FENNELL,0,
43.24,0,2822,-79.89,1469,,,FENNELL AV W & AUCHMAR ROAD,FENNELL at AUCHMAR,0,
43.24,0,2008,-79.88,1471,,,FENNELL AV W & GOVERNORS BLVD (Mohawk Colleg,FENNELL at GOVERNORS,0,
43.24,0,2821,-79.88,1472,,,FENNELL AV W & GOVERNORS BLVD OPP.,FENNELL opposite GOVERNORS,0,
43.23,0,2400,-79.87,1473,,,FENNELL AV W & UPPER JAMES STREET,FENNELL at UPPER JAMES,0,
43.23,0,2801,-79.87,1474,,,FENNELL AV W & WEST 2ND STREET,FENNELL at WEST 2ND,0,
43.23,0,2400,-79.88,1475,,,FENNELL AV W & WEST 2ND STREET,FENNELL at WEST 2ND,0,
43.23,0,2801,-79.88,1476,,,FENNELL AV W & WEST 4TH. ST. (@#83),FENNELL opposite WEST 4TH,0,
43.23,0,2011,-79.88,1477,,,FENNELL AV W & WEST 5TH STREET,FENNELL at WEST 5TH,0,
43.26,0,1457,-79.85,1478,,,FERRIE ST E & WELLINGTON STREET,FERRIE at WELLINGTON,0,
43.20,0,2627,-79.98,1480,,,FIDDLER'S GREEN RD & #371 (North of ENMORE DRIVE),FIDDLER'S GREEN at ENMORE,0,
43.20,0,2623,-79.98,1481,,,FIDDLER'S GREEN RD & ENMORE DRIVE OPP.,FIDDLER'S GREEN opposite ENMORE,0,
43.20,0,2626,-79.98,1482,,,FIDDLER'S GREEN RD & GARDEN AVENUE,FIDDLER'S GREEN at GARDEN,0,
43.21,0,2616,-79.98,1483,,,FIDDLER'S GREEN RD & GILBERT AVENUE,FIDDLER'S GREEN at GILBERT,0,
43.21,0,2628,-79.98,1484,,,FIDDLER'S GREEN RD & GILBERT AVENUE OPP. ( @ # 175),FIDDLER'S GREEN opposite GILBERT,0,
43.21,0,2616,-79.98,1485,,,FIDDLER'S GREEN RD & OAKLEY COURT,FIDDLER'S GREEN at OAKLEY,0,
43.21,0,2628,-79.98,1486,,,FIDDLER'S GREEN RD & OAKLEY COURT OPP. (@ # 241),FIDDLER'S GREEN opposite OAKLEY,0,
43.21,0,2628,-79.98,1488,,,FIDDLER'S GREEN RD & WILSON STREET,FIDDLER'S GREEN at WILSON,0,
43.18,0,2466,-79.78,1489,,,FIRST RD W & #162 (S ISAAC BROCK DR.),At 162 FIRST,0,
43.19,0,2426,-79.77,1490,,,FIRST RD W & BRANTHAVEN DRIVE OPP (@#246),FIRST opposite BRANTHAVEN,0,
43.18,0,2426,-79.78,1491,,,FIRST RD W & ELECTRA CT,FIRST opposite ELECTRA,0,
43.19,0,2426,-79.78,1492,,,FIRST RD W & JOHN MURRAY STREET OPP (@#226),FIRST opposite JOHN MURRAY,0,
43.26,0,1031,-79.82,1494,,,GAGE AV N & #377 S BURLINGTON ST.,At 377 GAGE,0,
43.26,0,1053,-79.82,1495,,,GAGE AV N & #377 OPP. N BEACH RD.,Opposite 377 GAGE,0,
43.25,0,1031,-79.82,1496,,,GAGE AV N & BEACH ROAD,GAGE at BEACH,0,
43.25,0,1053,-79.82,1497,,,GAGE AV N & BEACH ROAD,GAGE at BEACH,0,
43.26,0,1031,-79.82,1498,,,GAGE AV N & BURLINGTON STREET E.,GAGE at BURLINGTON,0,
43.26,0,2794,-79.82,1499,,,GAGE AV N & BURLINGTON ST E,GAGE at INDUSTRIAL,0,
43.26,0,1054,-79.82,1500,,,GAGE AV N & INDUSTRIAL DRIVE(STELCO GT #5),GAGE at GATE 5,0,
43.24,0,1131,-79.83,1501,,,GAGE AV S & #194 (Btwn Maplewood Ave & C,At 194 GAGE,0,
43.24,0,1167,-79.83,1502,,,GAGE AV S & #194 OPP. (Btwn Maplewood Ave,Opposite 194 GAGE,0,
43.24,0,1131,-79.83,1503,,,GAGE AV S & CUMBERLAND AVENUE,GAGE at CUMBERLAND,0,
43.24,0,1167,-79.83,1504,,,GAGE AV S & CUMBERLAND AVENUE OPP.,GAGE opposite CUMBERLAND,0,
43.19,0,1419,-80.02,1506,,,GARNER RD W & HIGHWAY 2,GARNER at HIGHWAY 2,0,
43.19,0,1420,-80.02,1507,,,GARNER RD W & MCCLURE RD,GARNER at RAYAL FARMS,0,
43.19,0,1427,-80.02,1508,,,GARNER RD W & MCCLURE RD,GARNER opposite RAYAL FARMS,0,
43.19,0,1429,-80.01,1509,,,GARNER RD W & Wal-Mart - Canadian Tire PLAZA,GARNER at WALMART,0,
43.22,0,2283,-79.90,1510,,,GARTH ST & #1120 (N of LINC ),GARTH at LINC NORTH,0,
43.22,0,2302,-79.90,1511,,,GARTH ST & #1120 OPP.( N of LINC),GARTH at LINC NORTH,0,
43.22,0,2284,-79.90,1512,,,GARTH ST & #1194-#1242 (Btwn) (S of Linc),GARTH at LINC SOUTH,0,
43.22,0,2145,-79.90,1513,,,GARTH ST & #1242 OPP. (S of Linc),GARTH at LINC SOUTH,0,
43.21,0,2139,-79.90,1514,,,GARTH ST & #1440,At 1440 GARTH,0,
43.21,0,2143,-79.90,1515,,,GARTH ST & # 1440 OPP.,Opposite 1440 GARTH,0,
43.24,0,2833,-79.89,1516,,,GARTH ST & AUCHMAR ROAD,GARTH at AUCHMAR,0,
43.24,0,2846,-79.89,1517,,,GARTH ST & AUCHMAR ROAD OPP.,GARTH opposite AUCHMAR,0,
43.23,0,2825,-79.89,1518,,,GARTH ST & BENDAMERE AVENUE,GARTH at BENDAMERE,0,
43.23,0,2005,-79.89,1519,,,GARTH ST & BENDAMERE AVENUE,GARTH at BENDAMERE,0,
43.24,0,2833,-79.89,1520,,,GARTH ST & BRAEMAR PL,GARTH at BRAEMAR,0,
43.21,0,2139,-79.91,1521,,,GARTH ST & CLAUDETTE GATE,GARTH at CLAUDETTE,0,
43.21,0,2143,-79.91,1522,,,GARTH ST & CLAUDETTE GATE,GARTH opposite CLAUDETTE,0,
43.24,0,2007,-79.89,1523,,,GARTH ST & DENLOW AV OPP.(OP.#734),GARTH opposite DENLOW,0,
43.23,0,2825,-79.90,1524,,,GARTH ST & ELMWOOD AVENUE,GARTH at ELMWOOD,0,
43.23,0,2005,-79.89,1525,,,GARTH ST & ELMWOOD AVENUE,GARTH at ELMWOOD,0,
43.24,0,2007,-79.89,1526,,,GARTH ST & FENNELL AVENUE,GARTH at FENNELL,0,
43.22,0,2284,-79.90,1527,,,GARTH ST & GARROW DRIVE,GARTH at GARROW,0,
43.21,0,2144,-79.90,1528,,,GARTH ST & GARROW DRIVE,GARTH at GARROW,0,
43.20,0,2139,-79.91,1529,,,GARTH ST & GISELE DR.,GARTH at GISELE,0,
43.20,0,2143,-79.91,1530,,,GARTH ST & GISELE DR. OPP.,GARTH opposite GISELE,0,
43.21,0,2138,-79.90,1531,,,GARTH ST & GLENVALE DRIVE,GARTH at GLENVALE,0,
43.21,0,2144,-79.90,1532,,,GARTH ST & GLENVALE DRIVE OPP.,GARTH opposite GLENVALE,0,
43.22,0,2283,-79.90,1533,,,GARTH ST & LIMERIDGE COURT,GARTH at LIMERIDGE,0,
43.22,0,2302,-79.90,1534,,,GARTH ST & LIMERIDGE ROAD,GARTH at LIMERIDGE,0,
43.23,0,2824,-79.89,1535,,,GARTH ST & MOUNTAIN CREST AVENUE,GARTH at MOUNTAIN CREST,0,
43.23,0,2006,-79.89,1536,,,GARTH ST & MOUNTAIN CREST AV OP. (OP.#798,GARTH opposite MOUNTAIN CREST,0,
43.21,0,2139,-79.90,1537,,,GARTH ST & REGENT AVENUE,GARTH at REGENT,0,
43.21,0,2143,-79.90,1538,,,GARTH ST & REGENT AVENUE OPP.,GARTH opposite REGENT,0,
43.23,0,2847,-79.90,1541,,,GARTH ST & SANATORIUM ROAD,GARTH at SANATORIUM,0,
43.24,0,2823,-79.89,1542,,,GARTH ST & DENLOW AVE,GARTH at DENLOW,0,
43.24,0,2987,-79.89,1543,,,GARTH ST & DENLOW AVE,GARTH at DENLOW,0,
43.21,0,2138,-79.90,1544,,,GARTH ST & STONE CHURCH ROAD,GARTH at STONE CHURCH,0,
43.21,0,2143,-79.90,1545,,,GARTH ST & STONE CHURCH ROAD,GARTH at STONE CHURCH,0,
43.23,0,2824,-79.89,1546,,,GARTH ST & WESTCLIFFE AVENUE,GARTH at WESTCLIFFE,0,
43.23,0,2006,-79.89,1547,,,GARTH ST & WESTCLIFFE AV OPP.(OP.#766),GARTH opposite WESTCLIFFE,0,
43.17,0,2421,-79.78,1549,,,HIGHBURY DR & opp GATESTONE DR,HIGHBURY at GATESTONE,0,
43.18,0,2420,-79.78,1550,,,GATESTONE DR & HIGHLAND ROAD,GATESTONE at HIGHLAND,0,
43.18,0,2421,-79.78,1551,,,GATESTONE DR & SHADY GLEN DRIVE,GATESTONE at SHADYGLEN,0,
43.20,0,2898,-79.92,1553,,,GLANCASTER RD & GARNER RD E,GLANCASTER at GARNER,0,
43.21,0,2862,-79.92,1554,,,GLANCASTER RD & GARNER RD E,GLANCASTER at GARNER,0,
43.20,0,2862,-79.92,1555,,,GLANCASTER RD & CHRISTIAN HIGH SCHOOL,GLANCASTER LOOP,0,
43.25,0,2507,-79.78,1556,,,GLOW AV & BRIGHTON AVENUE,GLOW at BRIGHTON,0,
43.25,0,2432,-79.78,1557,,,GLOW AV & BRIGHTON AVENUE,GLOW at BRIGHTON,0,
43.25,0,2508,-79.77,1558,,,GLOW AV & DUNN AVENUE,GLOW at DUNN,0,
43.25,0,2453,-79.77,1559,,,GLOW AV & DUNN AVENUE,GLOW at DUNN,0,
43.25,0,2508,-79.77,1560,,,GLOW AV & KNOX AVENUE,GLOW at KNOX,0,
43.25,0,2432,-79.77,1561,,,GLOW AV & KNOX AVENUE,GLOW at KNOX,0,
43.25,0,2507,-79.78,1562,,,GLOW AV & PARKDALE AVENUE,GLOW at PARKDALE,0,
43.25,0,2433,-79.78,1563,,,GLOW AV & PARKDALE AVENUE,GLOW at PARKDALE,0,
43.25,0,2509,-79.77,1564,,,GLOW AV & WOODWARD AVENUE,GLOW at WOODWARD,0,
43.22,0,2424,-79.94,1565,,,GOLF LINKS RD & CLOVERLEAF DRIVE,GOLF LINKS at CLOVERLEAF,0,
43.22,0,2399,-79.94,1566,,,GOLF LINKS RD & CLOVERLEAF DR,GOLF LINKS at CLOVERLEAF,0,
43.22,0,2458,-79.95,1567,,,GOLF LINKS RD & KITTY MURRAY LANE,GOLF LINKS opposite KITTY MURRAY,0,
43.22,0,2461,-79.95,1568,,,GOLF LINKS RD & KITTY MURRAY LANE,GOLF LINKS at KITTY MURRAY,0,
43.22,0,2458,-79.94,1569,,,GOLF LINKS RD & LEGEND COURT,GOLF LINKS at LEGEND,0,
43.22,0,2399,-79.94,1570,,,GOLF LINKS RD & opp MARTINDALE CR,GOLF LINKS opposite MARTINDALE,0,
43.22,0,2424,-79.94,1571,,,GOLF LINKS RD & MARTINDALE CR,GOLF LINKS opposite MARTINDALE,0,
43.22,0,2474,-79.94,1572,,,GOLF LINKS RD & MARTINDALE CR,GOLF LINKS opposite MARTINDALE,0,
43.22,0,2471,-79.96,1573,,,GOLF LINKS RD & MCNIVEN ROAD,GOLF LINKS at MCNIVEN,0,
43.22,0,2461,-79.94,1574,,,GOLF LINKS RD & MEADOWLANDS BLVD.,GOLF LINKS at MEADOWLANDS,0,
43.22,0,2471,-79.95,1575,,,GOLF LINKS RD & ONONDAGA DRIVE,GOLF LINKS at ONONDAGA,0,
43.22,0,2461,-79.95,1576,,,GOLF LINKS RD & ONONDAGA DRIVE OPP.,GOLF LINKS opposite ONONDAGA,0,
43.22,0,2473,-79.93,1577,,,MOHAWK RD & STONE CHURCH ROAD,MOHAWK at STONE CHURCH,0,
43.22,0,2399,-79.93,1578,,,GOLF LINKS RD & STONE CHURCH ROAD,GOLF LINKS at STONE CHURCH,0,
43.19,0,2463,-79.79,1579,,,GORDON DRUMMOND AV & GORDON DRUMMOND AVENUE,GORDON DRUMMOND at GORDON DRUMMOND,0,
43.19,0,2479,-79.79,1580,,,GORDON DRUMMOND AV & GORDON DRUMMOND AVE OPP.,GORDON DRUMMOND at GORDON DRUMMOND,0,
43.19,0,2479,-79.78,1581,,,GORDON DRUMMOND AV & VENTURA DR,GORDON DRUMMOND at VENTURA,0,
43.19,0,2464,-79.78,1582,,,GORDON DRUMMOND AV & ISAAC BROCK DRIVE,GORDON DRUMMOND at ISAAC BROCK,0,
43.19,0,2479,-79.79,1583,,,GORDON DRUMMOND AV & KELSEY GATE,GORDON DRUMMOND at KELSEY,0,
43.19,0,2479,-79.79,1584,,,GORDON DRUMMOND AV & MARSTON STREET,GORDON DRUMMOND at MARSTON,0,
43.19,0,2464,-79.79,1585,,,GORDON DRUMMOND AV & TWIN OAKS CRESCENT,GORDON DRUMMOND at TWIN OAKS,0,
43.24,0,2857,-79.92,1586,,,GOULDING AV & SAN FERNANDO DRIVE,GOULDING at SAN FERNANDO,0,
43.24,0,2854,-79.92,1587,,,GOULDING AV & SAN GRECO DRIVE,GOULDING at SAN GRECO,0,
43.24,0,2857,-79.92,1588,,,GOULDING AV & SCENIC DRIVE,GOULDING at SCENIC,0,
43.24,0,2854,-79.92,1589,,,GOULDING AV & SCENIC DRIVE,GOULDING at SCENIC,0,
43.26,0,1373,-79.96,1592,,,GOVERNOR'S RD & AVON DRIVE,GOVERNORS at AVON,0,
43.26,0,1374,-79.96,1593,,,GOVERNOR'S RD & AVON DRIVE OPP. (@ # 203),GOVERNORS opposite AVON,0,
43.25,0,1372,-79.97,1594,,,GOVERNOR'S RD & BRIDLEWOOD DRIVE,GOVERNORS at BRIDLEWOOD,0,
43.25,0,1375,-79.97,1595,,,GOVERNOR'S RD & CASTLEWOOD BLVD,GOVERNORS at CASTLEWOOD,0,
43.26,0,1374,-79.96,1596,,,GOVERNOR'S RD & CREIGHTON DRIVE,GOVERNORS at CREIGHTON,0,
43.26,0,1373,-79.96,1597,,,GOVERNOR'S RD & CREIGHTON DRIVE,GOVERNORS at CREIGHTON,0,
43.25,0,1376,-79.98,1598,,,GOVERNOR'S RD & DAVIDSON BOULEVARD,GOVERNORS at DAVIDSON,0,
43.25,0,1372,-79.97,1599,,,GOVERNOR'S RD & HIGHLAND SECONDARY SCHOOL.,GOVERNORS at HIGHLAND SCHOOL,0,
43.25,0,1375,-79.97,1601,,,GOVERNOR'S RD & HUNTINGWOOD AVENUE,GOVERNORS at HUNTINGWOOD,0,
43.25,0,1372,-79.97,1602,,,GOVERNOR'S RD & HUNTINGWOOD AV OPP. (@ #260),GOVERNORS opposite HUNTINGWOOD,0,
43.26,0,1198,-79.95,1603,,,GOVERNOR'S RD & MAIN STREET (@ # 10),GOVERNORS at MAIN,0,
43.26,0,1104,-79.95,1604,,,GOVERNOR'S RD & MAIN STREET (@ # 15),At 15 GOVERNORS,0,
43.25,0,1371,-79.98,1605,,,GOVERNOR'S RD & MOSS BOULEVARD,GOVERNORS at MOSS,0,
43.25,0,1376,-79.98,1606,,,GOVERNOR'S RD & MOSS BOULEVARD,GOVERNORS opposite MOSS,0,
43.26,0,1373,-79.95,1607,,,GOVERNOR'S RD & OVERFIELD ST,GOVERNORS at OVERFIELD,0,
43.26,0,1374,-79.95,1608,,,GOVERNOR'S RD & OVERFIELD STREET OPP.(@#101),GOVERNORS opposite OVERFIELD,0,
43.23,0,2566,-79.74,1609,,,GRAYS RD & #291 (S BARTON ST.),At 291 GRAYS,0,
43.23,0,2532,-79.74,1610,,,GRAYS RD & #298 (S BARTON ST.),At 298 GRAYS,0,
43.22,0,2532,-79.74,1611,,,GRAY RD & BRITANNIA AVENUE,GRAY at BRITANNIA,0,
43.22,0,2566,-79.74,1612,,,GRAY RD & BRITANNIA AV OPP. (@#263),GRAY opposite BRITANNIA,0,
43.22,0,2531,-79.74,1613,,,GRAY RD & CEDARDALE AVENUE (@#210),GRAY at CEDARDALE,0,
43.22,0,2567,-79.74,1614,,,GRAY RD & CEDARDALE AVENUE OPP. (@#215),GRAY opposite CEDARDALE,0,
43.22,0,2567,-79.74,1615,,,GRAY RD & FEDERAL STREET,GRAY at FEDERAL,0,
43.22,0,2530,-79.74,1616,,,GRAY RD & FEDERAL STREET,GRAY at FEDERAL,0,
43.22,0,2530,-79.74,1617,,,GRAY RD & HIGHWAY #8,GRAY at HIGHWAY 8,0,
43.22,0,2566,-79.74,1618,,,GRAY RD & ROXBOROUGH AVENUE,GRAY at ROXBOROUGH,0,
43.22,0,2531,-79.74,1619,,,GRAY RD & ROXBOROUGH AVENUE,GRAY at ROXBOROUGH,0,
43.22,0,2583,-79.73,1620,,,GREEN RD & HIGHWAY #8,GREEN at HIGHWAY 8,0,
43.21,0,2583,-79.73,1621,,,GREEN RD & KING STREET,GREEN at KING,0,
43.20,0,2493,-79.78,1623,,,GREENHILL AV & AMBROSE AVENUE,GREENHILL at AMBROSE,0,
43.20,0,2493,-79.78,1624,,,GREENHILL AV & BLANCHE COURT,GREENHILL at BLANCHE,0,
43.21,0,2449,-79.79,1625,,,GREENHILL AV & BUNKER HILL DRIVE,GREENHILL at BUNKER HILL,0,
43.22,0,1141,-79.80,1626,,,GREENHILL AV & COCHRANE RD,GREENHILL at COCHRANE,0,
43.21,0,2448,-79.79,1627,,,GREENHILL AV & COUNTRY CLUB DRIVE,GREENHILL at COUNTRY CLUB,0,
43.21,0,2494,-79.79,1628,,,GREENHILL AV & GLEN MANOR STREET,GREENHILL at GLEN MANOR,0,
43.21,0,1454,-79.77,1629,,,GREENHILL AV & MONTE DR OPP.,GREENHILL opposite MONTE,0,
43.21,0,2448,-79.79,1630,,,GREENHILL AV & MOUNT ALBION ROAD,GREENHILL at MOUNT ALBION,0,
43.21,0,2494,-79.79,1631,,,GREENHILL AV & MOUNT ALBION ROAD,GREENHILL at MOUNT ALBION,0,
43.21,0,2494,-79.79,1632,,,GREENHILL AV & PUTTING PLACE,GREENHILL at PUTTING,0,
43.20,0,2493,-79.78,1633,,,GREENHILL AV & QUIGLEY ROAD,GREENHILL at QUIGLEY,0,
43.20,0,2492,-79.77,1634,,,GREENHILL AV & ST. STEVEN STREET,GREENHILL at ST. STEVEN,0,
43.21,0,2492,-79.77,1635,,,GREENHILL AV & SUMMERCREST ST,GREENHILL at SUMMERCREST,0,
43.21,0,1454,-79.77,1636,,,GREENHILL AV & TASHA CRT,GREENHILL at TASHA,0,
43.21,0,1454,-79.77,1637,,,GREENHILL AV & TOMMAR PLACE,GREENHILL at TOMMAR,0,
43.21,0,2448,-79.79,1638,,,GREENHILL AV & TORO DRIVE,GREENHILL at TORO,0,
43.25,0,2831,-79.80,1639,,,GRENFELL ST & KENILWORTH AVENUE,GRENFELL at KENILWORTH,0,
43.25,0,2831,-79.80,1640,,,GRENFELL ST & MARTIMAS AVENUE,GRENFELL at MARTIMAS,0,
43.19,0,2130,-79.82,1642,,,HARLOWE RD & PRITCHARD ROAD (@#46),HARLOWE at PRITCHARD,0,
43.26,0,1433,-79.97,1643,,,HATT ST & BROCK STREET,HATT at BROCK,0,
43.27,0,1431,-79.97,1644,,,HEAD ST & #1 (HEAD ST. CUL DE SEC) LO,HEAD STREET LOOP,0,
43.26,0,1431,-79.97,1645,,,HEAD ST & MACNAB STREET,HEAD at MACNAB,0,
43.19,0,2118,-79.83,1646,,,HEMPSTEAD DR & NEBO ROAD,HEMPSTEAD at NEBO,0,
43.19,0,2118,-79.83,1647,,,HEMPSTEAD DR & UNSWORTH DRIVE OPP. (@#20),HEMPSTEAD opposite UNSWORTH,0,
43.24,0,2943,-79.87,1648,,,HERKIMER ST & BAY STREET,HERKIMER at BAY,0,
43.25,0,2943,-79.87,1649,,,HERKIMER ST & CAROLINE STREET,HERKIMER at CAROLINE,0,
43.24,0,2943,-79.87,1650,,,HERKIMER ST & PARK STREET,HERKIMER at PARK,0,
43.24,0,2942,-79.88,1651,,,HESS ST S & ABERDEEN AVENUE,HESS at ABERDEEN,0,
43.25,0,2835,-79.88,1652,,,HESS ST S & CHARLTON AVENUE,HESS at CHARLTON,0,
43.25,0,2836,-79.87,1653,,,HESS ST S & DUKE STREET,HESS at DUKE,0,
43.25,0,2942,-79.88,1654,,,HESS ST S & HERKIMER STREET,HESS at HERKIMER,0,
43.25,0,2837,-79.87,1655,,,HESS ST S & HUNTER STREET,HESS at HUNTER,0,
43.25,0,2835,-79.88,1657,,,HESS ST S & ROBINSON STREET,HESS at ROBINSON,0,
43.17,0,2421,-79.78,1658,,,HIGHBURY DR & FOX MEADOW DRIVE,HIGHBURY at FOXMEADOW,0,
43.18,0,2422,-79.77,1659,,,HIGHBURY DR & PINEWOOD DRIVE,HIGHBURY at PINEWOODS,0,
43.17,0,2422,-79.77,1660,,,HIGHBURY DR & SLINGER AVENUE OPP.,HIGHBURY opposite SLINGER,0,
43.17,0,2421,-79.78,1661,,,HIGHBURY DR & WHITE DEER ROAD,HIGHBURY at WHITEDEER,0,
43.18,0,2472,-79.78,1662,,,HIGHLAND RD W & FIRST ROAD WEST,HIGHLAND at FIRST,0,
43.18,0,2472,-79.78,1664,,,HIGHLAND RD W & LECKIE AVENUE OPP. (@#138),HIGHLAND opposite LECKIE,0,
43.18,0,2469,-79.77,1665,,,HIGHLAND RD W & SALTFLEET HIGH SCH (Op. #117),HIGHLAND at SALTFLEET HIGH SCHOOL,0,
43.21,0,2525,-79.70,1666,,,HIGHWAY NO. 8 & #610 (E ENVOY BLVD.),At 610 HIGHWAY 8,0,
43.21,0,2551,-79.70,1667,,,HIGHWAY NO. 8 & PRIVATE RD,At 613 HIGHWAY 8,0,
43.21,0,2549,-79.69,1668,,,HIGHWAY NO. 8 & # 703 (W OF JONES RD),At 715 HIGHWAY 8,0,
43.21,0,2528,-79.69,1669,,,HIGHWAY NO. 8 & #715 OPP. (W JONES RD.),Opposite 715 HIGHWAY 8,0,
43.22,0,2517,-79.73,1670,,,HIGHWAY NO. 8 & CHESTER RD OPP.,HIGHWAY 8 opposite CHESTER,0,
43.21,0,2524,-79.71,1671,,,HIGHWAY NO. 8 & DEWITT ROAD,HIGHWAY 8 at DEWITT,0,
43.21,0,2551,-79.71,1672,,,HIGHWAY NO. 8 & DEWITT ROAD,HIGHWAY 8 at DEWITT,0,
43.22,0,2558,-79.74,1673,,,HIGHWAY NO. 8 & DURHAM ROAD,HIGHWAY 8 at DURHAM,0,
43.22,0,2556,-79.72,1674,,,HIGHWAY NO. 8 & ELLINGTON AVENUE,HIGHWAY 8 at ELLINGTON,0,
43.21,0,2525,-79.70,1675,,,HIGHWAY NO. 8 & ENVOY BLVD,HIGHWAY 8 at ENVOY,0,
43.21,0,2525,-79.70,1676,,,HIGHWAY NO. 8 & FRUITLAND ROAD,HIGHWAY 8 at REGALVIEW,0,
43.21,0,2549,-79.70,1677,,,HIGHWAY NO. 8 & FRUITLAND ROAD,HIGHWAY 8 at FRUITLAND,0,
43.22,0,2517,-79.74,1678,,,HIGHWAY NO. 8 & GATESHEAD CRESCENT,HIGHWAY 8 at GATESHEAD,0,
43.22,0,2519,-79.73,1679,,,HIGHWAY NO. 8 & GREEN ROAD,HIGHWAY 8 at GREEN,0,
43.22,0,2556,-79.73,1680,,,HIGHWAY NO. 8 & GREEN ROAD,HIGHWAY 8 at GREEN,0,
43.21,0,2522,-79.72,1681,,,HIGHWAY NO. 8 & HOMESIDE AVE,HIGHWAY 8 at HOMESIDE,0,
43.21,0,2528,-79.69,1682,,,HIGHWAY NO. 8 & JONES ROAD,HIGHWAY 8 at JONES,0,
43.21,0,2549,-79.69,1683,,,HIGHWAY NO. 8 & JONES ROAD (106m),HIGHWAY 8 at JONES,0,
43.21,0,2521,-79.72,1684,,,HIGHWAY NO. 8 & KILBOURN AVE,HIGHWAY 8 at KILBOURN,0,
43.21,0,2520,-79.72,1685,,,HIGHWAY NO. 8 & KING STREET,HIGHWAY 8 at KING,0,
43.21,0,2521,-79.72,1686,,,HIGHWAY NO. 8 & MILLEN ROAD,HIGHWAY 8 at MILLEN,0,
43.21,0,2554,-79.72,1687,,,HIGHWAY NO. 8 & MILLEN ROAD (@# 415),HIGHWAY 8 at MILLEN,0,
43.21,0,2552,-79.71,1688,,,HIGHWAY NO. 8 & PEACHWOOD CRESCENT,HIGHWAY 8 at PEACHWOOD,0,
43.21,0,2551,-79.70,1689,,,HIGHWAY NO. 8 & ROYALWOOD CT.,HIGHWAY 8 at ROYALWOOD,0,
43.21,0,2552,-79.71,1690,,,HIGHWAY NO. 8 & SPARTAN AVENUE (OP. # 490),Opposite 490 HIGHWAY 8,0,
43.21,0,2523,-79.71,1691,,,HIGHWAY NO. 8 & SPARTAN AVENUE OPP. (@#490),At 490 HIGHWAY 8,0,
43.22,0,2558,-79.73,1692,,,HIGHWAY NO. 8 & WARWICK ROAD,HIGHWAY 8 at WARWICK,0,
43.21,0,2555,-79.72,1693,,,HIGHWAY NO. 8 & WORSLEY ROAD,HIGHWAY 8 at WORSLEY,0,
43.29,0,1330,-79.86,1694,,,HOLY SEPULCHRE CEMETARY & PLAINS RD W,HOLY SEPULCHRE CEMETERY EAST,0,
43.29,0,1330,-79.86,1695,,,HOLY SEPULCHRE WEST & PLAINS RD W,HOLY SEPULCHRE CEMETERY WEST,0,
43.25,0,1175,-79.86,1704,,,HUNTER ST E & JOHN ST S,HUNTER at JOHN,0,
43.25,0,1175,-79.86,1705,,,HUNTER ST E & SPRING STREET,HUNTER at SPRING,0,
43.25,0,1175,-79.86,1706,,,HUNTER ST E & WALNUT STREET,HUNTER at WALNUT,0,
43.25,0,7068,-79.87,1707,,,HUNTER ST W & BAY ST S,HUNTER at BAY,0,
43.25,0,2969,-79.87,1708,,,HUNTER ST W & CAROLINE STREET,HUNTER at CAROLINE,0,
43.25,0,2969,-79.87,1709,,,HUNTER ST W & HESS STREET,HUNTER at HESS,0,
43.25,0,2937,-79.88,1710,,,HUNTER ST W & LOCKE STREET,HUNTER at LOCKE,0,
43.25,0,2966,-79.87,1711,,,HUNTER ST W & MACNAB STREET,HUNTER at MACNAB,0,
43.25,0,2968,-79.87,1712,,,HUNTER ST W & PARK ST S,HUNTER opposite PARK,0,
43.25,0,2937,-79.88,1713,,,HUNTER ST W & PEARL STREET,HUNTER at PEARL,0,
43.25,0,2970,-79.87,1714,,,HUNTER ST W & QUEEN STREET,HUNTER at QUEEN,0,
43.23,0,1044,-79.81,1715,,,HUXLEY AV S & KING STREET,HUXLEY at KING,0,
43.26,0,1073,-79.81,1717,,,INDUSTRIAL DR & DEPEW STREET,INDUSTRIAL opposite DEPEW,0,
43.26,0,2792,-79.81,1718,,,INDUSTRIAL DR & DOFASCO GATE #6 - Btwn Ottawa,INDUSTRIAL at OTTAWA,0,
43.25,0,2791,-79.80,1719,,,INDUSTRIAL DR & DOFASCO PARKING LOT OPP.(Eas,INDUSTRIAL opposite DOFASCO PARKING,0,
43.26,0,1054,-79.82,1720,,,INDUSTRIAL DR & GAGE AVENUE OPP.,INDUSTRIAL opposite GAGE,0,
43.26,0,2793,-79.81,1721,,,INDUSTRIAL DR & OTTAWA STREET,INDUSTRIAL at OTTAWA,0,
43.24,0,2315,-79.87,1722,,,INVERNESS AV E & BELAIR DRIVE,INVERNESS at BELAIR,0,
43.24,0,2315,-79.86,1723,,,INVERNESS AV E & BRUCEPARK DRIVE,INVERNESS at BRUCE PARK,0,
43.24,0,2316,-79.86,1724,,,INVERNESS AV E & EAST 8TH STREET,INVERNESS at EAST 8TH,0,
43.24,0,2268,-79.87,1725,,,INVERNESS AV E & ELCHO STREET,INVERNESS at ELCHO,0,
43.24,0,2268,-79.86,1726,,,INVERNESS AV E & KNYVET STREET,INVERNESS opposite SOUTHILL,0,
43.24,0,2269,-79.87,1727,,,INVERNESS AV E & UPPER JAMES STREET,INVERNESS at UPPER JAMES,0,
43.24,0,2314,-79.87,1728,,,INVERNESS AV E & WAVELL AVENUE,INVERNESS at WAVELL,0,
43.18,0,2465,-79.78,1729,,,ISAAC BROCK DR & GATESTONE DRIVE,ISAAC BROCK at GATESTONE,0,
43.18,0,2465,-79.78,1730,,,ISAAC BROCK DR & DOLMAN ST,ISAAC BROCK at KENNARD,0,
43.19,0,2411,-79.78,1731,,,ISAAC BROCK DR & WILLIAM JOHNSON ST OPP. (@#353,ISAAC BROCK at WILLIAM JOHNSON,0,
43.26,0,1064,-79.86,1734,,,JAMES ST N & BARTON STREET,JAMES at BARTON,0,
43.27,0,1019,-79.86,1735,,,JAMES ST N & BURLINGTON STREET,JAMES at BURLINGTON,0,
43.26,0,1067,-79.86,1736,,,JAMES ST N & CANNON ST W,JAMES at CANNON,0,
43.26,0,1208,-79.86,1737,,,JAMES ST N & COLBOURNE STREET,JAMES at COLBOURNE,0,
43.25,0,9902,-79.86,1738,,,JAMES ST N & KING STREET,JAMES opposite KING WILLIAM,0,
43.25,0,2947,-79.86,1739,,,JAMES ST N & KING WILLIAM STREET OPP.,JAMES opposite KING WILLIAM,0,
43.26,0,1016,-79.86,1740,,,JAMES ST N & MURRAY ST E,JAMES at MURRAY,0,
43.26,0,1064,-79.86,1741,,,JAMES ST N & MURRAY ST E,JAMES at MURRAY,0,
43.26,0,1017,-79.86,1742,,,JAMES ST N & PICTON STREET,JAMES at PICTON,0,
43.27,0,1063,-79.86,1743,,,JAMES ST N & PICTON STREET,JAMES at PICTON,0,
43.25,0,1011,-79.86,1744,,,JAMES ST N & REBECCA STREET OPP.,JAMES opposite REBECCA,0,
43.26,0,1065,-79.86,1745,,,JAMES ST N & ROBERT STREET OPP. (@ # 219),JAMES opposite ROBERT,0,
43.26,0,1017,-79.86,1746,,,JAMES ST N & SIMCOE STREET,JAMES at SIMCOE,0,
43.26,0,1063,-79.86,1747,,,JAMES ST N & SIMCOE STREET OPP.,JAMES opposite SIMCOE,0,
43.27,0,1019,-79.86,1748,,,JAMES ST N & WOOD STREET,JAMES at WOOD,0,
43.27,0,1062,-79.86,1749,,,JAMES ST N & WOOD STREET,JAMES at WOOD,0,
43.25,0,1234,-79.86,1750,,,JAMES ST N & YORK BV,JAMES at YORK,0,
43.25,0,1303,-79.87,1751,,,JAMES ST S & BOLD STREET,JAMES at BOLD,0,
43.25,0,2013,-79.87,1752,,,JAMES ST S & BOLD STREET,JAMES at BOLD,0,
43.25,0,2014,-79.87,1753,,,JAMES ST S & BOLD STREET,JAMES at BOLD,0,
43.25,0,2015,-79.87,1754,,,JAMES ST S & BOLD STREET,JAMES at BOLD,0,
43.24,0,2013,-79.87,1755,,,JAMES ST S & CHARLTON AVENUE,JAMES at CHARLTON,0,
43.24,0,2014,-79.87,1756,,,JAMES ST S & CHARLTON AVENUE,JAMES at CHARLTON,0,
43.24,0,2015,-79.87,1757,,,JAMES ST S & CHARLTON AVENUE,JAMES at CHARLTON,0,
43.25,0,2000,-79.87,1758,,,JAMES ST S & HUNTER ST E,JAMES at HUNTER,0,
43.25,0,2009,-79.87,1759,,,JAMES ST S & HUNTER ST E,JAMES at HUNTER,0,
43.25,0,2012,-79.87,1760,,,JAMES ST S & HUNTER ST E,JAMES at HUNTER,0,
43.25,0,2967,-79.87,1761,,,JAMES ST S & HUNTER ST E,JAMES at HUNTER,0,
43.25,0,9202,-79.87,1762,,,JAMES ST S & JACKSON ST E,JAMES at JACKSON,0,
43.25,0,2010,-79.87,1763,,,JAMES ST S & JACKSON ST E,JAMES at JACKSON,0,
43.25,0,2912,-79.87,1764,,,JAMES ST S & JACKSON ST E,JAMES at JACKSON,0,
43.25,0,1901,-79.87,1765,,,JAMES ST S & JACKSON ST E,JAMES at JACKSON,0,
43.25,0,1902,-79.86,1766,,,JAMES ST S & KING ST W,JAMES at KING,0,
43.25,0,1012,-79.86,1768,,,JAMES ST S & MAIN STREET,JAMES at MAIN,0,
43.25,0,2948,-79.86,1769,,,JAMES ST S & MAIN ST E,JAMES at MAIN,0,
43.25,0,2526,-79.86,1771,,,JAMES ST S & MAIN STREET,JAMES at JACKSON,0,
43.24,0,2900,-79.87,1772,,,JAMES ST S & MARKLAND STREET,JAMES at MARKLAND,0,
43.25,0,2013,-79.87,1773,,,JAMES ST S & ROBINSON STREET,JAMES at ROBINSON,0,
43.25,0,2014,-79.87,1774,,,JAMES ST S & ROBINSON STREET,JAMES at ROBINSON,0,
43.25,0,2015,-79.87,1775,,,JAMES ST S & ROBINSON STREET,JAMES at ROBINSON,0,
43.21,0,1424,-80.00,1776,,,JERSEYVILLE RD W & MARTIN ROAD,JERSEYVILLE at MARTIN,0,
43.21,0,1442,-80.00,1777,,,JERSEYVILLE RD W & MEADOWBROOK DRIVE,JERSEYVILLE at MEADOWBROOK,0,
43.21,0,1424,-80.01,1778,,,JERSEYVILLE RD W & SHAVER ROAD OPP.,JERSEYVILLE opposite SHAVER,0,
43.21,0,1442,-80.01,1779,,,JERSEYVILLE RD W & STEVENSON STREET,JERSEYVILLE at STEVENSON,0,
43.21,0,1424,-80.01,1780,,,JERSEYVILLE RD W & STEVENSON STREET OPP.,JERSEYVILLE opposite STEVENSON,0,
43.32,0,2696,-79.79,1781,,,JOHN ST & BURLINGTON TERMINAL,JOHN at BURLINGTON TERMINAL,0,
43.24,0,2093,-79.86,1783,,,JOHN ST S & CHARLTON AVENUE,JOHN at CHARLTON,0,
43.24,0,2094,-79.86,1784,,,JOHN ST S & CHARLTON AVENUE,JOHN at CHARLTON,0,
43.24,0,2097,-79.86,1785,,,JOHN ST S & CHARLTON AVENUE,JOHN at CHARLTON,0,
43.25,0,2093,-79.86,1786,,,JOHN ST S & AUGUSTA ST,JOHN opposite HAYMARKET,0,
43.25,0,2094,-79.86,1787,,,JOHN ST S & AUGUSTA ST,JOHN opposite HAYMARKET,0,
43.25,0,2095,-79.86,1788,,,JOHN ST S & HAYMARKET ST,JOHN opposite HAYMARKET,0,
43.25,0,2097,-79.86,1789,,,JOHN ST S & AUGUSTA ST,JOHN opposite HAYMARKET,0,
43.25,0,1092,-79.86,1790,,,JOHN ST S & JACKSON ST E,JOHN at JACKSON,0,
43.25,0,2089,-79.86,1791,,,JOHN ST S & JACKSON ST E,JOHN at JACKSON,0,
43.25,0,2092,-79.86,1792,,,JOHN ST S & JACKSON ST E,JOHN at JACKSON,0,
43.25,0,2096,-79.86,1793,,,JOHN ST S & JACKSON ST E,JOHN at JACKSON,0,
43.25,0,2093,-79.86,1794,,,JOHN ST S & FOREST AV,JOHN at YOUNG,0,
43.25,0,2094,-79.86,1795,,,JOHN ST S & FOREST AV,JOHN at YOUNG,0,
43.25,0,2097,-79.86,1796,,,JOHN ST S & YOUNG ST,JOHN at YOUNG,0,
43.21,0,2589,-79.68,1797,,,JONES RD & BARTON STREET,JONES at BARTON,0,
43.21,0,2529,-79.69,1798,,,JONES RD & HWY. #8,JONES at HIGHWAY 8,0,
43.21,0,1151,-79.75,1799,,,JONES ST & KING STREET,JONES at KING,0,
43.23,0,1134,-79.82,1800,,,JUSTINE AV & BALMORAL AVENUE,JUSTINE at BALMORAL,0,
43.23,0,1165,-79.82,1801,,,JUSTINE AV & BALMORAL AVENUE,JUSTINE at BALMORAL,0,
43.23,0,1135,-79.82,1802,,,JUSTINE AV & EDGEMONT STREET,JUSTINE at EDGEMONT,0,
43.23,0,1164,-79.82,1803,,,JUSTINE AV & EDGEMONT STREET,JUSTINE at EDGEMONT,0,
43.23,0,1135,-79.81,1804,,,JUSTINE AV & KING STREET,JUSTINE at KING,0,
43.23,0,1134,-79.82,1805,,,JUSTINE AV & OTTAWA STREET,JUSTINE at OTTAWA,0,
43.23,0,1164,-79.82,1806,,,JUSTINE AV & OTTAWA STREET,JUSTINE at OTTAWA,0,
43.22,0,2779,-79.81,1809,,,KENILWORTH ACCESS,KENILWORTH CIRCLE at KIMBERLY,0,
43.24,0,2776,-79.80,1810,,,KENILWORTH AV N & #103 KENILWORTH PUBLIC LIBRARY,KENILWORTH at PUBLIC LIBRARY,0,
43.24,0,2774,-79.80,1811,,,KENILWORTH AV N & ALBANY AVENUE,KENILWORTH at ALBANY,0,
43.24,0,2784,-79.80,1812,,,KENILWORTH AV N & ALBANY AVENUE,KENILWORTH at ALBANY,0,
43.24,0,2774,-79.80,1813,,,KENILWORTH AV N & BARTON STREET,KENILWORTH at BARTON,0,
43.24,0,2790,-79.80,1814,,,KENILWORTH AV N & BARTON STREET,KENILWORTH at BARTON,0,
43.25,0,2677,-79.80,1815,,,KENILWORTH AV N & BEACH ROAD,KENILWORTH at BEACH,0,
43.24,0,2784,-79.80,1816,,,KENILWORTH AV N & BRITANNIA AV,KENILWORTH at BRITANNIA,0,
43.24,0,2775,-79.80,1817,,,KENILWORTH AV N & CANNON STREET,KENILWORTH at CANNON,0,
43.24,0,2783,-79.80,1818,,,KENILWORTH AV N & CANNON STREET,KENILWORTH at CANNON,0,
43.25,0,2677,-79.80,1819,,,KENILWORTH AV N & DOFASCO AVE,KENILWORTH at DOFASCO,0,
43.24,0,2776,-79.80,1820,,,KENILWORTH AV N & DUNSMURE ROAD,KENILWORTH at DUNSMURE,0,
43.24,0,2782,-79.80,1821,,,KENILWORTH AV N & DUNSMURE ROAD,KENILWORTH at DUNSMURE,0,
43.25,0,2773,-79.80,1822,,,KENILWORTH AV N & MCANULTY BLVD. (@ # 425),KENILWORTH at MCANULTY,0,
43.25,0,2677,-79.80,1823,,,KENILWORTH AV N & McNAULTY BLVD. (OPP.#455),Opposite 455 KENILWORTH,0,
43.25,0,2790,-79.80,1824,,,KENILWORTH AV N & MERCHISON AVENUE,KENILWORTH at MERCHISON,0,
43.24,0,2783,-79.80,1825,,,KENILWORTH AV N & ROXBOUROUGH AVENUE,KENILWORTH at ROXBOROUGH,0,
43.25,0,2773,-79.80,1826,,,KENILWORTH AV N & VANSITMART AVENUE (opp. #350),KENILWORTH opposite VANSITMART,0,
43.23,0,2777,-79.81,1827,,,KENILWORTH AV S & CENTRAL AVENUE,KENILWORTH at CENTRAL,0,
43.23,0,2781,-79.81,1828,,,KENILWORTH AV S & CENTRAL AVENUE,KENILWORTH at CENTRAL,0,
43.23,0,2780,-79.81,1829,,,KENILWORTH AV S & KING STREET (opp. # 218),KENILWORTH at KING,0,
43.23,0,2778,-79.81,1830,,,KENILWORTH AV S & KING STREET - OFF RAMP,KENILWORTH at KING,0,
43.24,0,2772,-79.81,1831,,,KENILWORTH AV N & MAIN STREET,KENILWORTH at MAIN,0,
43.24,0,2782,-79.80,1832,,,KENILWORTH AV N & MAIN STREET,KENILWORTH at MAIN,0,
43.23,0,2777,-79.81,1833,,,KENILWORTH AV S & MAPLE AVENUE,KENILWORTH at MAPLE,0,
43.23,0,2781,-79.81,1834,,,KENILWORTH AV S & MAPLE AVENUE,KENILWORTH at MAPLE,0,
43.23,0,2778,-79.81,1835,,,KENILWORTH AV S & MONTEREY AVENUE,KENILWORTH at MONTEREY,0,
43.23,0,2780,-79.81,1836,,,KENILWORTH AV S & MONTEREY AVENUE,KENILWORTH at MONTEREY,0,
43.23,0,1044,-79.81,1837,,,KENILWORTH AC & LAWRENCE ROAD,KENILWORTH OFF RAMP at LAWRENCE,0,
43.26,0,1200,-79.95,1839,,,KING ST W & CROSS STREET,KING at CROSS,0,
43.26,0,1102,-79.95,1840,,,KING ST W & OGILVIE ST,KING at OGILVIE,0,
43.26,0,1103,-79.94,1841,,,COOTES DR & WEST STREET,COOTES at WEST,0,
43.26,0,1314,-79.95,1842,,,KING ST E & YORK STREET,KING at YORK,0,
43.26,0,1200,-79.95,1843,,,KING ST E & YORK STREET (@#33),KING at YORK,0,
43.26,0,1201,-79.95,1844,,,KING ST W & ALBERT STREET,KING at ALBERT,0,
43.26,0,1202,-79.96,1845,,,KING ST W & CHURCH ST,KING at CHURCH,0,
43.26,0,1100,-79.96,1846,,,KING ST W & CHURCH STREET OPP.(@#178),KING opposite CHURCH,0,
43.26,0,1100,-79.96,1847,,,KING ST W & MARKET STREET,KING at MARKET,0,
43.26,0,1101,-79.95,1848,,,KING ST W & MCMURRAY STREET,KING at MCMURRAY,0,
43.26,0,1101,-79.95,1849,,,KING ST W & MEMORIAL SQUARE,KING at MEMORIAL,0,
43.26,0,1099,-79.96,1850,,,KING ST W & NAPIER STREET,KING at NAPIER,0,
43.26,0,1203,-79.96,1851,,,KING ST W & PEEL STREET,KING at PEEL,0,
43.26,0,1201,-79.95,1852,,,KING ST W & SYDENHAM STREET,KING at SYDENHAM,0,
43.27,0,1342,-79.96,1853,,,KING ST W & BROCK STREET,KING at BROCK,0,
43.26,0,1202,-79.96,1854,,,KING ST W & MARKET STREET,KING at MARKET,0,
43.26,0,1202,-79.96,1855,,,KING ST W & NAPIER STREET,KING at NAPIER,0,
43.27,0,1342,-79.96,1856,,,KING ST W & WELLINGTON STREET (DUNDAS),KING at WELLINGTON,0,
43.21,0,2585,-79.73,1866,,,KING ST E,Opposite 342 KING,0,
43.21,0,2587,-79.73,1867,,,KING ST E & #251 (E CORMAN AVE.),At 251 KING,0,
43.21,0,2580,-79.73,1868,,,KING ST E & #256 (W GREEN RD.),At 256 KING,0,
43.21,0,2593,-79.76,1869,,,KING ST W & BATTLEFIELD DR. OPP.(@ # 60),KING opposite BATTLEFIELD,0,
43.21,0,2574,-79.76,1870,,,KING ST W & BATTLEFIELD DRIVE (Op. # 58),KING at BATTLEFIELD,0,
43.21,0,2578,-79.74,1871,,,KING ST E & BONITA DRIVE,KING at BONITA,0,
43.21,0,2587,-79.74,1872,,,KING ST E & CORMAN AVENUE,KING at CORMAN,0,
43.21,0,2580,-79.74,1873,,,KING ST E & CORMAN AVENUE,KING at CORMAN,0,
43.21,0,2588,-79.74,1874,,,KING ST E & DAWSON AVENUE (@# 129),KING at DAWSON,0,
43.21,0,2594,-79.76,1875,,,KING ST W & FAIRCOURT DRIVE,KING at FAIRCOURT,0,
43.21,0,2574,-79.76,1876,,,KING ST W & PRIVATE RD,KING opposite FAIRCOURT,0,
43.21,0,2582,-79.74,1877,,,KING ST E & GRAY ROAD,KING at GRAY,0,
43.21,0,2573,-79.74,1878,,,KING ST E & GRAY ROAD,KING at GRAY,0,
43.21,0,2586,-79.73,1879,,,KING ST E & GREEN FOREST DR OPP. (@# 323),KING opposite GREEN FOREST,0,
43.21,0,2586,-79.73,1880,,,KING ST E & GREEN ROAD,KING at GREEN,0,
43.21,0,2592,-79.75,1881,,,KING ST W & LAKE AVENUE,KING at LAKE,0,
43.21,0,2575,-79.75,1882,,,KING ST W & LAKE AVENUE DR,KING at LAKE,0,
43.21,0,2578,-79.75,1883,,,KING ST E & LOMA DRIVE,KING at LOMA,0,
43.21,0,2588,-79.75,1884,,,KING ST E & MANOR PLACE,KING at MANOR,0,
43.21,0,2591,-79.75,1885,,,KING ST E & MOUNTAIN AVENUE,KING at MOUNTAIN,0,
43.21,0,2576,-79.75,1886,,,KING ST E & MOUNTAIN AVENUE,KING at MOUNTAIN,0,
43.21,0,2577,-79.75,1887,,,KING ST E & NEW MOUNTAIN ROAD,KING at NEW MOUNTAIN,0,
43.21,0,2587,-79.74,1888,,,KING ST E & STONEY BROOK DRIVE,KING at STONEY BROOK,0,
43.21,0,2580,-79.74,1889,,,KING ST E & STONEY BROOK DRIVE,KING at STONEY BROOK,0,
43.21,0,2590,-79.75,1890,,,KING ST E & ELM (@# 63),At 63 KING,0,
43.21,0,2593,-79.76,1891,,,KING ST W & VILLAGE GREEN BLVD.,KING at VILLAGE GREEN,0,
43.21,0,2574,-79.76,1892,,,KING ST W & WALKER AVENUE,KING at WALKER,0,
43.22,0,1110,-79.77,1893,,,KING ST E & # 2673,At 2673 KING,0,
43.24,0,2740,-79.83,1894,,,KING ST E & BALSAM AVENUE,KING at BALSAM,0,
43.23,0,1136,-79.80,1895,,,KING ST E & BARONS AVENUE OPP. (OP. #1831),KING opposite BARONS,0,
43.24,0,2739,-79.82,1896,,,KING ST E & BELVIEW AVENUE,KING at BELVIEW,0,
43.23,0,1163,-79.80,1897,,,KING ST E & CAMERON AVENUE,KING at CAMERON,0,
43.25,0,2737,-79.86,1898,,,KING ST E & CATHERINE STREET,KING at CATHARINE,0,
43.21,0,1150,-79.76,1899,,,KING ST W & CENTENNIAL PKWY,KING at CENTENNIAL,0,
43.23,0,1162,-79.80,1900,,,KING ST E & COCHRANE ROAD,KING at COCHRANE,0,
43.23,0,1142,-79.80,1901,,,KING ST E & COCHRANE ROAD,KING at COCHRANE,0,
43.24,0,2739,-79.82,1902,,,KING ST E & EAST BEND AVENUE,KING opposite EAST BEND,0,
43.23,0,1045,-79.81,1903,,,KING ST E & EDGEMONT STREET,KING at EDGEMONT,0,
43.25,0,2745,-79.85,1904,,,KING ST E & EMERALD STREET,KING at EMERALD,0,
43.25,0,2740,-79.83,1905,,,KING ST E & FAIRHOLT ROAD,KING at FAIRHOLT,0,
43.25,0,2747,-79.86,1906,,,KING ST E & FERGUSON AVENUE,KING at FERGUSON,0,
43.24,0,2739,-79.82,1907,,,KING ST E & GAGE AV N,KING at GAGE,0,
43.22,0,1154,-79.78,1908,,,KING ST E & GAILMONT DRIVE,KING at GAILMONT,0,
43.22,0,1146,-79.78,1909,,,KING ST E & GAILMONT DRIVE OPP. @#2574),KING opposite GAILMONT,0,
43.22,0,1149,-79.77,1910,,,KING ST E & GREENHILL AVENUE,KING at GREENHILL,0,
43.25,0,2742,-79.84,1911,,,KING ST E & HOLTON AVENUE,KING at HOLTON,0,
43.22,0,1157,-79.79,1912,,,KING ST E & HOMESDALE AVENUE,KING at HOLMESDALE,0,
43.25,0,2753,-79.86,1913,,,KING ST E & HUGHSON STREET,KING at HUGHSON,0,
43.25,0,2700,-79.86,1914,,,KING ST E & HUGHSON STREET (1),KING at HUGHSON,0,
43.25,0,1093,-79.86,1916,,,KING ST E & JOHN STREET (5B,52),KING at JOHN,0,
43.25,0,1094,-79.86,1917,,,KING ST E & JOHN STREET (5C,51),KING at JOHN,0,
43.23,0,1038,-79.81,1918,,,KING ST E & JUSTINE AV (Op.#1601 King ST),KING at JUSTINE,0,
43.23,0,1163,-79.81,1919,,,KING ST E & KENILWORTH AVENUE,KING at KENILWORTH,0,
43.23,0,1136,-79.81,1920,,,KING ST E & KENILWORTH AVENUE,KING at KENILWORTH,0,
43.23,0,1039,-79.81,1921,,,KING ST E & KESWICK COURT,KING at KESWICK,0,
43.25,0,2740,-79.83,1922,,,KING ST E & LOTTRIDGE STREET,KING at LOTTRIDGE,0,
43.22,0,1143,-79.79,1923,,,KING ST E & MAYHURST AVENUE,KING at MAYHURST,0,
43.23,0,1038,-79.82,1924,,,KING ST E & MONTCLAIR AVENUE,KING at MONTCLAIR,0,
43.22,0,1145,-79.78,1925,,,KING ST E,KING at PARKWAY OFF RAMP,0,
43.22,0,1155,-79.78,1926,,,KING ST E & MOUNT ALBION ROAD OPP.,KING opposite MOUNT ALBION,0,
43.22,0,1153,-79.77,1927,,,KING ST E & NASH ROAD,KING at NASH,0,
43.22,0,1148,-79.77,1928,,,KING ST E & NASH ROAD OPP.,KING opposite NASH,0,
43.23,0,1045,-79.82,1929,,,KING ST E & OTTAWA STREET,KING at OTTAWA,0,
43.23,0,1038,-79.82,1930,,,KING ST E & OTTAWA STREET,KING at OTTAWA,0,
43.22,0,1152,-79.77,1931,,,KING ST E & OWEN PLACE,KING at OWEN,0,
43.22,0,1090,-79.79,1932,,,KING ST E & PARKDALE AVENUE,KING at PARKDALE,0,
43.22,0,1144,-79.79,1933,,,KING ST E & PARKDALE AVENUE,KING at PARKDALE,0,
43.22,0,1155,-79.78,1934,,,KING ST E & POTTRUFF ROAD,KING at POTTRUFF,0,
43.22,0,1145,-79.78,1935,,,KING ST E & POTTRUFF ROAD OPP.,KING opposite POTTRUFF,0,
43.23,0,1045,-79.81,1936,,,KING ST E & PROVINCE STREET,KING at PROVINCE,0,
43.22,0,1154,-79.78,1937,,,KING ST E & QUIGLEY RD OPP. (@# 2609),KING opposite QUIGLEY,0,
43.22,0,1146,-79.78,1938,,,KING ST E & QUIGLEY ROAD,KING at QUIGLEY,0,
43.23,0,1162,-79.80,1939,,,KING ST E & RODGERS ROAD,KING at RODGERS,0,
43.23,0,1137,-79.80,1940,,,KING ST E & ROSEDALE AVENUE,KING at ROSEDALE,0,
43.23,0,1163,-79.80,1941,,,KING ST E & ROSEDALE AV,KING opposite ROSEDALE,0,
43.25,0,2743,-79.84,1942,,,KING ST E & SANFORD AVENUE,KING at SANFORD,0,
43.25,0,2741,-79.83,1943,,,KING ST E & SHERMAN AVENUE,KING at SHERMAN,0,
43.25,0,2745,-79.85,1944,,,KING ST E & STEVEN STREET,KING at STEVEN,0,
43.25,0,2742,-79.84,1945,,,KING ST E & STIRTON STREET,KING at STIRTON,0,
43.25,0,2745,-79.85,1946,,,KING ST E & VICTORIA AVENUE,KING at VICTORIA,0,
43.25,0,2747,-79.86,1947,,,KING ST E & WALNUT STREET,KING at WALNUT,0,
43.23,0,1157,-79.79,1948,,,KING ST E & WALTER AVENUE,KING at WALTER,0,
43.23,0,1143,-79.79,1949,,,KING ST E & WALTER AVENUE OPP. @#2194),KING opposite WALTER,0,
43.25,0,2746,-79.85,1950,,,KING ST E & WELLINGTON STREET (HAMILTON),KING at WELLINGTON,0,
43.25,0,2744,-79.84,1951,,,KING ST E & WENTWORTH STREET,KING at WENTWORTH,0,
43.23,0,1070,-79.81,1952,,,KING ST E & WEXFORD AVENUE,KING at WEXFORD,0,
43.23,0,1039,-79.81,1953,,,KING ST E & WEXFORD AVENUE,KING at WEXFORD,0,
43.23,0,1142,-79.80,1954,,,KING ST E & WOODRIDGE ROAD,KING at WOODBRIDGE,0,
43.25,0,1098,-79.87,1955,,,KING ST W & BAY STREET SOUTH,KING at BAY,0,
43.25,0,3401,-79.87,1956,,,KING ST W & BAY STREET SOUTH,KING at BAY,0,
43.26,0,1180,-79.90,1959,,,KING ST W & CLINE AV N,KING at CLINE,0,
43.25,0,1083,-79.87,1960,,,KING ST W & CAROLINE STREET,KING at CAROLINE,0,
43.25,0,2841,-79.87,1961,,,KING ST W & CAROLINE STREET,KING at CAROLINE,0,
43.26,0,1177,-79.88,1962,,,KING ST W & DUNDURN STREET,KING at DUNDURN,0,
43.26,0,1498,-79.88,1963,,,KING ST W & DUNDURN STREET,KING at DUNDURN,0,
43.25,0,1095,-79.86,1964,,,KING ST W,KING at JAMES,0,
43.25,0,1096,-79.86,1965,,,KING ST W & JAMES STREET (5C),KING at JAMES,0,
43.26,0,1159,-79.90,1967,,,KING ST W & LONGWOOD RD N,KING at LONGWOOD,0,
43.26,0,1178,-79.89,1969,,,KING ST W & MACKLIN ST N,KING at MACKLIN,0,
43.25,0,1066,-79.86,1970,,,KING ST W & MACNAB STREET OPP.,KING opposite MACNAB,0,
43.26,0,2749,-79.90,1971,,,KING ST W & MARION AVENUE,KING at MARION,0,
43.26,0,1180,-79.90,1972,,,KING ST W & MARION AVENUE,KING at MARION,0,
43.26,0,1121,-79.90,1973,,,KING ST W & PAISLEY AVENUE,KING at PAISLEY,0,
43.26,0,1179,-79.89,1974,,,KING ST W & PARADISE ROAD,KING at PARADISE,0,
43.26,0,1176,-79.88,1976,,,KING ST W & PEARL STREET (OP.#407),KING at PEARL,0,
43.25,0,2754,-79.87,1977,,,KING ST W & QUEEN ST N,KING at QUEEN,0,
43.26,0,2755,-79.90,1978,,,KING ST W & STERLING STREET,KING at STERLING,0,
43.26,0,1177,-79.88,1979,,,KING ST W & STRATHCONA AVENUE,KING at STRATHCONA,0,
43.30,0,2692,-79.79,1981,,,LAKESHORE RD & #1094 OPP. SEWER GAS GLOBE,At 1094 LAKESHORE,0,
43.30,0,2758,-79.79,1982,,,LAKESHORE RD & #938 OPP. (S OHAMA ST.),Opposite 938 LAKESHORE,0,
43.30,0,2692,-79.79,1983,,,LAKESHORE RDDRIVEWAY & AT  #944,At 944 LAKESHORE,0,
43.32,0,2697,-79.79,1984,,,LAKESHORE RD & BRANT STREET,LAKESHORE at BRANT,0,
43.32,0,2695,-79.79,1985,,,LAKESHORE RD & BRANT ST,LAKESHORE opposite BRANT,0,
43.32,0,2698,-79.79,1986,,,LAKESHORE RD & BURLINGTON AV,LAKESHORE at BURLINGTON,0,
43.32,0,2695,-79.79,1987,,,LAKESHORE RD & BURLINGTON AVENUE OPP.,LAKESHORE opposite BURLINGTON,0,
43.31,0,2757,-79.80,1988,,,LAKESHORE RD & HALTON REGION GARAGE,LAKESHORE at HALTON REGION GARAGE,0,
43.31,0,2693,-79.80,1989,,,LAKESHORE RD & HALTON REGION GARAGE OPP.,LAKESHORE opposite HALTON GARAGE,0,
43.31,0,2699,-79.80,1990,,,LAKESHORE RD & JOSEPH BRANT HOSP. SERVICE ENT,LAKESHORE at JOSEPH BRANT HOSPITAL,0,
43.31,0,2693,-79.80,1991,,,LAKESHORE RD & JOSEPH BRANT HOSPITAL OPP.,LAKESHORE opposite JOSEPH BRANT HOSPITAL,0,
43.31,0,2699,-79.80,1992,,,LAKESHORE RD & MTO PATROL YARD,LAKESHORE at MTO PATROL YARD,0,
43.31,0,2693,-79.80,1993,,,LAKESHORE RD & MTO PATROL YARD,LAKESHORE opposite MTO PATROL YARD,0,
43.32,0,2698,-79.80,1994,,,LAKESHORE RD & NELSON AVENUE,LAKESHORE at NELSON,0,
43.32,0,2695,-79.80,1995,,,LAKESHORE RD & NELSON AVENUE OPP.,LAKESHORE opposite NELSON,0,
43.31,0,2694,-79.80,1996,,,LAKESHORE RD & NORTH SHORE BLVD,LAKESHORE at NORTH SHORE,0,
43.30,0,2692,-79.79,1997,,,LAKESHORE RD & OMAHA STREET OPP.,LAKESHORE opposite OMAHA,0,
43.30,0,2757,-79.80,1999,,,LAKESHORE RD & BEACHWAY PARK,LAKESHORE opposite BEACHWAY PARK,0,
43.23,0,1166,-79.83,2001,,,LAWRENCE RD & # 50 (Rosedale Tennis Club Ent,At 50 LAWRENCE,0,
43.23,0,1132,-79.83,2002,,,LAWRENCE RD & # 50 (Rosedale Tennis Club)OPP,Opposite 50 LAWRENCE,0,
43.23,0,1166,-79.82,2003,,,LAWRENCE RD & GAGE PARK ENTRANCE,LAWRENCE at GAGE PARK,0,
43.23,0,1044,-79.81,2004,,,LAWRENCE RD & HUXLEY AVENUE,LAWRENCE at HUXLEY,0,
43.23,0,1132,-79.82,2005,,,LAWRENCE RD & ROTHSAY AV,LAWRENCE opposite ROTHSAY,0,
43.23,0,1132,-79.82,2006,,,LAWRENCE RD & OPP. GAGE PARK ENTRANCE,LAWRENCE opposite GAGE PARK,0,
43.23,0,1165,-79.82,2007,,,LAWRENCE RD & ROSSLYN AVENUE,LAWRENCE at ROSSLYN,0,
43.23,0,1166,-79.82,2008,,,LAWRENCE RD & ROTHSAY AVE,LAWRENCE at ROTHSAY,0,
43.21,0,2125,-79.86,2009,,3,LIMERIDGE MALL TERMINAL & KINGFISHER DRIVE ENTRANCE,LIME RIDGE TERMINAL PLATFORM 3,0,
43.21,0,1068,-79.86,2010,,3,LIMERIDGE MALL TERMINAL & KINGFISHER DRIVE ENTRANCE,LIME RIDGE TERMINAL PLATFORM 5,0,
43.21,0,1069,-79.86,2011,,3,LIMERIDGE MALL TERMINAL & KINGFISHER DRIVE ENTRANCE,LIME RIDGE TERMINAL PLATFORM 4,0,
43.21,0,2239,-79.86,2012,,3,LIMERIDGE MALL TERMINAL & KINGFISHER DRIVE ENT OPP.,LIME RIDGE TERMINAL PLATFORM 1,0,
43.21,0,1434,-79.86,2013,,3,LIMERIDGE MALL TERMINAL & KINGFISHER DRIVE ENT OPP.,LIME RIDGE TERMINAL PLATFORM 2,0,
43.20,0,2407,-79.82,2014,,,LIMERIDGE RD E & #1350 East of UP. KENILWORTH,Opposite 1350 LIMERIDGE,0,
43.20,0,2416,-79.82,2015,,,LIMERIDGE RD E & #1350-1 West of ALBION FALLS,At 1350 LIMERIDGE,0,
43.20,0,2416,-79.82,2016,,,LIMERIDGE RD E & ALBION FALLS BLVD (@#1428),LIMERIDGE at ALBION FALLS,0,
43.20,0,2407,-79.82,2017,,,LIMERIDGE RD E & ALBION FALLS BOULEVARD OPP.,LIMERIDGE opposite ALBION FALLS,0,
43.20,0,2406,-79.82,2018,,,LIMERIDGE RD E & UPPER KENILWORTH AVENUE,LIMERIDGE at UPPER KENILWORTH,0,
43.20,0,2416,-79.82,2019,,,LIMERIDGE RD E & UPPER KENILWORTH AVENUE,LIMERIDGE at UPPER KENILWORTH,0,
43.20,0,2415,-79.82,2020,,,LIMERIDGE RD E & MOUNTAIN BROW BV,MOUNTAIN BROW LOOP,0,
43.22,0,2280,-79.89,2021,,,LIMERIDGE RD W & #150 W WEST 5TH ST.,At 150 LIMERIDGE,0,
43.22,0,2280,-79.89,2022,,,LIMERIDGE RD W & #190 W WEST 5TH ST.,At 190 LIMERIDGE,0,
43.22,0,2304,-79.89,2023,,,LIMERIDGE RD W & #195 W WEST 5TH ST.,At 195 LIMERIDGE,0,
43.22,0,2280,-79.89,2024,,,LIMERIDGE RD W & #235 OPP.E KENDALE CT.,Opposite 235 LIMERIDGE,0,
43.22,0,2304,-79.89,2025,,,LIMERIDGE RD W & #273 E KENDALE CT.,At 273 LIMERIDGE,0,
43.22,0,2281,-79.89,2026,,,LIMERIDGE RD W & #273 OPP. E KENDALE CT.,Opposite 273 LIMERIDGE,0,
43.22,0,2282,-79.90,2027,,,LIMERIDGE RD W & ELGAR AVENUE,LIMERIDGE at ELGAR,0,
43.22,0,2281,-79.89,2028,,,LIMERIDGE RD W & KENDALE COURT,LIMERIDGE at KENDALE,0,
43.22,0,2303,-79.90,2029,,,LIMERIDGE RD W & KENDALE CR OPP (Op. # 350),LIMERIDGE opposite KENDALE,0,
43.22,0,9999,-79.89,2030,,,LIMERIDGE RD W & WEST 5TH STREET,LIMERIDGE at WEST 5TH,0,
43.25,0,2965,-79.88,2032,,,LOCKE ST S & CHARLTON AVENUE,LOCKE at CHARLTON,0,
43.25,0,2964,-79.88,2033,,,LOCKE ST S & MAIN STREET,LOCKE at MAIN,0,
43.25,0,2965,-79.88,2034,,,LOCKE ST S & MELBOURNE STREET,LOCKE at MELBOURNE,0,
43.26,0,2958,-79.89,2035,,,LONGWOOD RD N & EDGEVALE ROAD,LONGWOOD at EDGEVALE,0,
43.26,0,2958,-79.89,2036,,,LONGWOOD RD N & FRANKLIN AVENUE,LONGWOOD at FRANKLIN,0,
43.26,0,2958,-79.89,2037,,,LONGWOOD RD N & NORWOOD ROAD,LONGWOOD at NORWOOD,0,
43.27,0,2894,-79.89,2038,,,LONGWOOD RD N & PRINCESS POINT LOOP,PRINCESS POINT LOOP,0,
43.25,0,2955,-79.90,2039,,,LONGWOOD RD S & #175 S MAIN ST.,At 175 LONGWOOD,0,
43.25,0,2936,-79.90,2040,,,LONGWOOD RD S & #175 S MAIN ST.(OPP. ),Opposite 175 LONGWOOD,0,
43.26,0,2899,-79.90,2041,,,LONGWOOD RD S & KING ST W,LONGWOOD at KING,0,
43.26,0,2957,-79.90,2042,,,LONGWOOD RD S & KING STREET,LONGWOOD at KING,0,
43.25,0,1485,-79.90,2043,,,LONGWOOD RD S & MAIN STREET,LONGWOOD at MAIN,0,
43.25,0,2955,-79.90,2044,,,LONGWOOD RD S & MAIN STREET,LONGWOOD at MAIN,0,
43.26,0,2935,-79.90,2045,,,LONGWOOD RD S & MARION AVENUE,LONGWOOD at MARION,0,
43.26,0,2956,-79.90,2046,,,LONGWOOD RD S & MARION AVENUE OPP. (OP. # 86),LONGWOOD opposite MARION,0,
43.26,0,1343,-79.89,2047,,,MACKLIN ST N & #100 OPP. - GEORGE P. VANIER E,At 100 MACKLIN,0,
43.26,0,1343,-79.89,2048,,,MACKLIN ST N & CORONATION POOL & RINK (OP #60,Opposite 60 MACKLIN,0,
43.26,0,1343,-79.89,2049,,,MACKLIN ST N & KAY DRAGE PARK ENTRANCE,MACKLIN at KAY DRAGE PARK,0,
43.26,0,1014,-79.86,2056,,,MACNAB ST N & CANNON STREET,MACNAB at CANNON,0,
43.26,0,1015,-79.86,2057,,,MACNAB ST N & COLBOURNE STREET,MACNAB at COLBOURNE,0,
43.26,0,1015,-79.86,2058,,,MACNAB ST N & MULBERRY STREET,MACNAB at MULBERRY,0,
43.26,0,1016,-79.86,2059,,,MACNAB STREET N. & MURRAY STREET,MACNAB at MURRAY,0,
43.25,0,1014,-79.86,2060,,,MACNAB ST N & YORK BLVD,MACNAB at YORK,0,
43.25,0,2954,-79.87,2061,,,MACNAB ST S & BOLD STREET,MACNAB at BOLD,0,
43.25,0,2944,-79.87,2062,,,MACNAB ST S & CHARLTON AVENUE,MACNAB at CHARLTON,0,
43.25,0,2954,-79.87,2063,,,MACNAB ST S & DUKE STREET,MACNAB at DUKE,0,
43.25,0,2944,-79.87,2065,,,MACNAB ST S & ROBINSON STREET,MACNAB at ROBINSON,0,
43.23,0,2849,-79.92,2066,,,MAGNOLIA DR & DIAMOND COURT,MAGNOLIA at DIAMOND,0,
43.23,0,2861,-79.92,2067,,,MAGNOLIA DR & MINSTREL CRESCENT,MAGNOLIA at MINSTREL,0,
43.23,0,2861,-79.92,2068,,,MAGNOLIA DR & MOHAWK ROAD,MAGNOLIA at MOHAWK,0,
43.23,0,2849,-79.92,2069,,,MAGNOLIA DR & MOHAWK ROAD,MAGNOLIA at MOHAWK,0,
43.24,0,2709,-79.83,2071,,,MAIN ST E & MELROSE AV S OPP.,MAIN opposite MELROSE,0,
43.24,0,2709,-79.83,2072,,,MAIN ST E & ASHFORD BV,MAIN at ASHFORD,0,
43.24,0,2738,-79.82,2073,,,MAIN ST E & BALMORAL AVENUE,MAIN at BALMORAL,0,
43.24,0,2711,-79.82,2074,,,MAIN ST E & BALMORAL AVENUE,MAIN at BALMORAL,0,
43.24,0,2709,-79.83,2075,,,MAIN ST E & BALSAM AVENUE,MAIN at BALSAM,0,
43.23,0,2715,-79.80,2076,,,MAIN ST E & CAMERON AV S,MAIN at CAMERON,0,
43.23,0,2732,-79.80,2077,,,MAIN ST E & COPE STREET,MAIN at COPE,0,
43.24,0,2710,-79.82,2078,,,MAIN ST E & EAST BEND AVENUE OPP.,MAIN opposite EAST BEND,0,
43.24,0,2707,-79.84,2079,,,MAIN ST E & EASTBOURNE AVENUE,MAIN at EASTBOURNE,0,
43.25,0,2704,-79.85,2080,,,MAIN ST E & EMERALD STREET,MAIN at EMERALD,0,
43.23,0,2715,-79.80,2081,,,MAIN ST E & FAIRFIELD AVENUE OPP.,MAIN opposite FAIRFIELD,0,
43.24,0,2707,-79.84,2082,,,MAIN ST E & FAIRLEIGH AVENUE,MAIN at FAIRLEIGH,0,
43.25,0,2703,-79.86,2083,,,MAIN ST E & FERGUSON AVENUE,MAIN at FERGUSON,0,
43.24,0,2733,-79.80,2084,,,MAIN ST E & GARSIDE AVENUE,MAIN at GARSIDE,0,
43.24,0,2710,-79.82,2085,,,MAIN ST E & GLENDALE AVENUE OPP.,MAIN opposite GLENDALE,0,
43.24,0,2735,-79.81,2086,,,MAIN ST E & GRAHAM AVENUE,MAIN at GRAHAM,0,
43.24,0,2713,-79.81,2087,,,MAIN ST E & GRAHAM AVENUE,MAIN at GRAHAM,0,
43.25,0,1088,-79.86,2088,,,MAIN ST E & HUGHSON ST S,MAIN at HUGHSON,0,
43.25,0,2701,-79.86,2089,,,MAIN ST E & HUGHSON STREET,MAIN at HUGHSON,0,
43.24,0,2713,-79.81,2090,,,MAIN ST E & HUXLEY AVENUE,MAIN at HUXLEY,0,
43.25,0,1340,-79.86,2091,,,MAIN ST E & JAMES STREET,MAIN at JAMES,0,
43.25,0,2702,-79.86,2093,,,MAIN ST E & JOHN ST S,MAIN at JOHN,0,
43.24,0,2734,-79.80,2094,,,MAIN ST E & KENILWORTH AVENUE,MAIN at KENILWORTH,0,
43.24,0,2714,-79.81,2095,,,MAIN ST E & KENILWORTH AVENUE,MAIN at KENILWORTH,0,
43.24,0,2738,-79.82,2096,,,MAIN ST E & KENSINGTON AVENUE,MAIN at KENSINGTON,0,
43.24,0,2711,-79.82,2097,,,MAIN ST E & KING STREET (ISLAND) - DELTA,MAIN at KING,0,
43.25,0,2704,-79.85,2098,,,MAIN ST E & ONTARIO STREET,MAIN at ONTARIO,0,
43.24,0,2736,-79.81,2100,,,MAIN ST E & OTTAWA ST N,MAIN at OTTAWA,0,
43.24,0,2712,-79.81,2101,,,MAIN ST E & OTTAWA STREET,MAIN at OTTAWA,0,
43.24,0,2735,-79.81,2102,,,MAIN ST E & PARK ROW,MAIN at PARK ROW,0,
43.24,0,2713,-79.81,2103,,,MAIN ST E & PARK ROW,MAIN at PARK ROW,0,
43.24,0,2707,-79.84,2104,,,MAIN ST E & SANFORD AVENUE,MAIN at SANFORD,0,
43.24,0,2708,-79.83,2105,,,MAIN ST E & GARFIELD AV OPP.,MAIN opposite GARFIELD,0,
43.23,0,2732,-79.80,2107,,,MAIN ST E & STRATHEARNE AVENUE,MAIN at STRATHEARNE,0,
43.23,0,2715,-79.80,2108,,,MAIN ST E & TRAGINA AVENUE,MAIN at TRAGINA,0,
43.25,0,2705,-79.85,2109,,,MAIN ST E & VICTORIA AVENUE,MAIN at VICTORIA,0,
43.25,0,2703,-79.86,2110,,,MAIN ST E & WALNUT STREET,MAIN at WALNUT,0,
43.23,0,2732,-79.80,2111,,,MAIN ST E & WEIR STREET,MAIN at WEIR,0,
43.25,0,2703,-79.85,2112,,,MAIN ST E & WELLINGTON STREET,MAIN at WELLINGTON,0,
43.25,0,2706,-79.84,2113,,,MAIN ST E & WENTWORTH STREET,MAIN at WENTWORTH,0,
43.24,0,2735,-79.81,2114,,,MAIN ST E & WEXFORD AVENUE,MAIN at WEXFORD,0,
43.25,0,2605,-79.94,2115,,,MAIN ST W & WHITE CHAPEL OPP.,MAIN opposite WHITE CHAPEL CEMETERY,0,
43.25,0,2644,-79.94,2116,,,MAIN ST W & WHITE CHAPEL CEMETERY,MAIN at WHITE CHAPEL CEMETERY,0,
43.24,0,2643,-79.94,2117,,,MAIN ST W & # 1940,Opposite 1940 MAIN,0,
43.24,0,2606,-79.94,2118,,,MAIN ST W & #1950 N WILSON ST.,At 1950 MAIN,0,
43.24,0,2643,-79.94,2119,,,1989 MAIN ST W & PRIVATE RD,At 1983 MAIN,0,
43.24,0,2606,-79.94,2120,,,MAIN ST W & #2000 N FILMAN RD.,At 2000 MAIN,0,
43.25,0,2919,-79.87,2121,,,MAIN ST W & BAY STREET,MAIN at BAY,0,
43.25,0,2838,-79.87,2122,,,MAIN ST W & BAY STREET,MAIN at BAY,0,
43.25,0,2647,-79.92,2123,,,MAIN ST W & RIFLE RANGE RD,MAIN at RIFLE RANGE,0,
43.25,0,1111,-79.90,2124,,,MAIN ST W & BOND STREET OPP,MAIN opposite BOND,0,
43.25,0,1108,-79.91,2125,,,MAIN ST W & BOWMAN STREET,MAIN at BOWMAN,0,
43.25,0,1195,-79.91,2126,,,MAIN ST W & BOWMAN STREET OPP.(@# 1277),MAIN opposite BOWMAN,0,
43.25,0,2838,-79.87,2127,,,MAIN ST W & CAROLINE STREET,MAIN at CAROLINE,0,
43.25,0,2919,-79.87,2128,,,MAIN ST W & CAROLINE STREET,MAIN at CAROLINE,0,
43.25,0,2923,-79.87,2129,,,MAIN ST W & CAROLINE STREET,MAIN at CAROLINE,0,
43.25,0,2646,-79.93,2130,,,MAIN ST W & OSLER DR,OSLER at MAIN,0,
43.25,0,2603,-79.92,2131,,,MAIN ST W & KINGSMOUNT STREET,MAIN at KINGSMOUNT,0,
43.25,0,1109,-79.91,2132,,,MAIN ST W & DALEWOOD AVENUE,MAIN at DALEWOOD,0,
43.25,0,1195,-79.91,2133,,,MAIN ST W & DALEWOOD AVENUE,MAIN at DALEWOOD,0,
43.25,0,1109,-79.90,2134,,,MAIN ST W & DOW AVENUE,MAIN at DOW,0,
43.25,0,1123,-79.88,2135,,,MAIN ST W & DUNDURN STREET,MAIN at DUNDURN,0,
43.25,0,2756,-79.88,2136,,,MAIN ST W & DUNDURN STREET,MAIN at DUNDURN,0,
43.25,0,2649,-79.91,2137,,,MAIN ST W & EMERSON ST,MAIN at EMERSON,0,
43.25,0,2601,-79.91,2138,,,MAIN ST W & EMERSON STREET OPP.,MAIN opposite EMERSON,0,
43.25,0,1352,-79.93,2139,,,MAIN ST W & EWEN RD,MAIN at EWEN,0,
43.25,0,1109,-79.91,2140,,,MAIN ST W & HADDON AVENUE,MAIN at HADDON,0,
43.25,0,1195,-79.91,2141,,,MAIN ST W & HADDON AVENUE,MAIN at HADDON,0,
43.25,0,2602,-79.92,2143,,,MAIN ST W & HOLLYWOOD STREET,MAIN at HOLLYWOOD,0,
43.25,0,2647,-79.92,2144,,,MAIN ST W & KINGSMOUNT STREET,MAIN at KINGSMOUNT,0,
43.25,0,2648,-79.92,2145,,,MAIN ST W & LELAND STREET,MAIN at LELAND,0,
43.25,0,1122,-79.90,2146,,,MAIN ST W & LONGWOOD ROAD,MAIN at LONGWOOD,0,
43.25,0,1193,-79.90,2147,,,MAIN ST W & LONGWOOD ROAD,MAIN at LONGWOOD,0,
43.25,0,1184,-79.89,2148,,,MAIN ST W & MACKLIN ST S,MAIN opposite MACKLIN,0,
43.25,0,2920,-79.87,2149,,,MAIN ST W & MACNAB STREET (1,10),MAIN at MACNAB,0,
43.25,0,2839,-79.87,2150,,,MAIN ST W & MACNAB STREET (34),MAIN at MACNAB,0,
43.25,0,1087,-79.87,2151,,,MAIN ST W & MACNAB STREET (5,5A,5E),MAIN at MACNAB,0,
43.25,0,1194,-79.90,2153,,,MAIN ST W & 403 RAMP OPP. - E NEWTON AV,MAIN opposite 403 RAMP,0,
43.25,0,2602,-79.92,2154,,,MAIN ST W & NORFOLK STREET (@ # 1516),MAIN at NORFOLK,0,
43.25,0,1194,-79.90,2155,,,MAIN ST W & PAISLEY AVENUE,MAIN at PAISLEY,0,
43.25,0,1009,-79.88,2156,,,MAIN ST W & PEARL STREET,MAIN at PEARL,0,
43.25,0,1124,-79.88,2157,,,MAIN ST W & PEARL STREET,MAIN at PEARL,0,
43.25,0,1123,-79.88,2158,,,MAIN ST W & POULETTE STREET,MAIN at POULETTE,0,
43.25,0,1009,-79.87,2159,,,MAIN ST W & QUEEN ST S,MAIN at QUEEN,0,
43.25,0,1124,-79.87,2160,,,MAIN ST W & QUEEN ST S,MAIN at QUEEN,0,
43.25,0,2750,-79.87,2161,,,MAIN ST W & QUEEN ST S,MAIN at QUEEN,0,
43.25,0,2648,-79.92,2162,,,MAIN ST W & THORNDALE STREET,MAIN at THORNDALE,0,
43.25,0,2603,-79.93,2163,,,MAIN ST W & WEST PARK AVENUE,MAIN at WEST PARK,0,
43.25,0,2603,-79.93,2164,,,MAIN ST W & WESTBOURNE ROAD,MAIN at WESTBOURNE,0,
43.25,0,2644,-79.93,2165,,,MAIN ST W & WHITNEY AVENUE,MAIN at WHITNEY,0,
43.25,0,2605,-79.94,2166,,,MAIN ST W & WHITNEY AVENUE OPP.,MAIN opposite WHITNEY,0,
43.24,0,1388,-79.83,2167,,,MAPLEWOOD AV & BALSAM AVENUE,MAPLEWOOD at BALSAM,0,
43.24,0,1168,-79.83,2168,,,MAPLEWOOD AV & BALSAM AVENUE,MAPLEWOOD at BALSAM,0,
43.24,0,1130,-79.83,2169,,,MAPLEWOOD AV & BLAKE STREET,MAPLEWOOD at BLAKE,0,
43.24,0,1169,-79.83,2170,,,MAPLEWOOD AV & BLAKE STREET,MAPLEWOOD at BLAKE,0,
43.24,0,1388,-79.83,2171,,,MAPLEWOOD AV & GAGE AVENUE,MAPLEWOOD at GAGE,0,
43.24,0,1168,-79.83,2172,,,MAPLEWOOD AV & GAGE AVENUE,MAPLEWOOD at GAGE,0,
43.24,0,1130,-79.83,2173,,,MAPLEWOOD AV & PROSPECT STREET,MAPLEWOOD at PROSPECT,0,
43.24,0,1168,-79.83,2174,,,MAPLEWOOD AV & PROSPECT STREET,MAPLEWOOD at PROSPECT,0,
43.24,0,1091,-79.84,2175,,,MAPLEWOOD AV & SHERMAN AVENUE,MAPLEWOOD at SHERMAN,0,
43.24,0,1169,-79.83,2176,,,MAPLEWOOD AV & SPRINGER AVENUE,MAPLEWOOD at SPRINGER,0,
43.24,0,1130,-79.83,2177,,,MAPLEWOOD AV & SPRINGER AVENUE OPP.,MAPLEWOOD opposite SPRINGER,0,
43.19,0,2463,-79.79,2178,,,MARSTON ST & RIDELL CR OPP.,MARSTON opposite RIDELL,0,
43.19,0,2419,-79.79,2179,,,MARSTON ST & PARAMOUNT DRIVE,MARSTON at PARAMOUNT,0,
43.22,0,2452,-79.94,2180,,,MARTINDALE CR & HOME DEPOT,At 122 MARTINDALE,0,
43.22,0,2451,-79.94,2181,,,MARTINDALE CR & NEVILLE DRIVE OPP.,MARTINDALE opposite NEVILLE,0,
43.22,0,2451,-79.93,2182,,,MARTINDALE CR & GOLFLINKS ROAD,MARTINDALE at GOLFLINKS EAST,0,
43.22,0,2470,-79.94,2183,,,MARTINDALE CR & GOLF LINKS RD,MEADOWLANDS TERMINAL PLATFORM 1,0,
43.22,0,2402,-79.94,2184,,,MEADOWLANDS TERMINAL & MARTINDALE CRESCENT,MEADOWLANDS TERMINAL PLATFORM 2,0,
43.26,0,2748,-79.91,2185,,,UNIVERSITY AV & LIFE SCIENCE BLDG,UNIVERSITY at LIFE SCIENCES,0,
43.26,0,1097,-79.91,2186,,,UNIVERSITY AV & OPP LIFE SCIENCE BLDG,UNIVERSITY opposite LIFE SCIENCES,0,
43.25,0,1344,-79.91,2189,,,UNIVERSITY AV & FORSYTH AVE,UNIVERSITY at FORSYTH,0,
43.25,0,2650,-79.91,2190,,,UNIVERSITY AV & FORSYTH AVE,UNIVERSITY at FORSYTH,0,
43.22,0,2660,-79.96,2191,,,MCNIVEN RD & GOLF LINKS ROAD,MCNIVEN at GOLF LINKS,0,
43.22,0,2668,-79.96,2192,,,MCNIVEN RD & MOHAWK ROAD,MCNIVEN at MOHAWK,0,
43.22,0,2660,-79.96,2193,,,MCNIVEN RD & ORTON AVENUE,MCNIVEN at ORTON,0,
43.22,0,2668,-79.96,2194,,,MCNIVEN RD & TOMAHAWK COURT,MCNIVEN at TOMAHAWK,0,
43.21,0,1444,-80.00,2195,,,MEADOWBROOK DR & GALLEY ROAD,MEADOWBROOK at GALLEY,0,
43.21,0,1426,-80.00,2196,,,MEADOWBROOK DR & GALLEY ROAD OPP.,MEADOWBROOK opposite GALLEY,0,
43.21,0,1443,-80.00,2197,,,MEADOWBROOK DR & MORWICK DRIVE,MEADOWBROOK at MORWICK,0,
43.21,0,1425,-80.00,2198,,,MEADOWBROOK DR & MORWICK DRIVE OPP.,MEADOWBROOK opposite MORWICK,0,
43.20,0,1444,-80.00,2199,,,MEADOWBROOK DR & SPEERS DRIVE,MEADOWBROOK at SPEERS,0,
43.20,0,1426,-80.00,2200,,,MEADOWBROOK DR & SPEERS DRIVE OPP.,MEADOWBROOK opposite SPEERS,0,
43.21,0,1443,-80.00,2201,,,MEADOWBROOK DR & TRANQUILITY AVENUE,MEADOWBROOK at TRANQUILITY,0,
43.21,0,1426,-80.00,2202,,,MEADOWBROOK DR & TRANQUILITY AVENUE OPP.,MEADOWBROOK opposite TRANQUILITY,0,
43.24,0,1255,-79.78,2203,,,MELVIN AV & ADAIR AVENUE,MELVIN at ADAIR,0,
43.24,0,1217,-79.78,2204,,,MELVIN AV & ADAIR AVENUE OPP.(@#235),MELVIN opposite ADAIR,0,
43.24,0,1255,-79.78,2205,,,MELVIN AV & AIRDRIE AVENUE,MELVIN at AIRDRIE,0,
43.24,0,1217,-79.78,2206,,,MELVIN AV & BLAIR AV. OPP. (#305),MELVIN opposite BLAIR,0,
43.24,0,1255,-79.78,2207,,,MELVIN AV & BERNARD STREET,MELVIN at BERNARD,0,
43.24,0,1253,-79.79,2208,,,MELVIN AV & JULIAN AVENUE,MELVIN at JULIAN,0,
43.24,0,1217,-79.78,2209,,,MELVIN AV & MCLAREN AVENUE OPP.(@#355),MELVIN opposite MACLAREN,0,
43.24,0,1219,-79.78,2210,,,MELVIN AV & PARKDALE AVENUE,MELVIN at PARKDALE,0,
43.24,0,1254,-79.78,2211,,,MELVIN AV & PARKDALE AV N,MELVIN at PARKDALE,0,
43.26,0,1432,-79.97,2212,,,MILL ST & HEAD STREET,MILL at HEAD,0,
43.26,0,1430,-79.97,2213,,,MILL ST & WELLINGTON STREET (OPP),MILL opposite WELLINGTON,0,
43.23,0,2901,-79.88,2214,,,MOHAWK COLLEGE  LOOP & MAIN ENTRANCE (SS),MOHAWK COLLEGE SOUTH ENTRANCE LOOP,0,
43.21,0,2321,-79.83,2219,,,MOHAWK RD E & #831 W UP. OTTAWA ST.,At 831 MOHAWK,0,
43.22,0,2323,-79.84,2220,,,MOHAWK RD E & CAMDEN STREET,MOHAWK at CAMDEN,0,
43.22,0,2328,-79.87,2221,,,MOHAWK RD E & DODSON STREET,MOHAWK at DODSON,0,
43.22,0,2365,-79.87,2222,,,MOHAWK RD E & DODSON STREET OPP. (@#124),MOHAWK opposite DODSON,0,
43.22,0,2673,-79.86,2223,,,MOHAWK RD E & EAST 16TH STREET,MOHAWK at EAST 16TH,0,
43.22,0,2352,-79.86,2224,,,MOHAWK RD E & EAST 16TH STREET OPP. (@#304),MOHAWK opposite EAST 16TH,0,
43.22,0,2325,-79.85,2225,,,MOHAWK RD E & EAST 25TH STREET,MOHAWK at EAST 25TH,0,
43.22,0,2324,-79.85,2226,,,MOHAWK RD E & EAST 27TH ST,MOHAWK at EAST 27TH,0,
43.22,0,2370,-79.85,2227,,,MOHAWK RD E & EAST 27TH. ST OPP. (#482),MOHAWK opposite EAST 27TH,0,
43.22,0,2323,-79.84,2228,,,MOHAWK RD E & EAST 36TH STREET,MOHAWK at EAST 36TH,0,
43.21,0,2322,-79.84,2229,,,MOHAWK RD E & EAST 42ND STREET,MOHAWK at EAST 42ND,0,
43.21,0,2321,-79.83,2230,,,MOHAWK RD E & EAST 45TH STREET,MOHAWK at EAST 45TH,0,
43.21,0,2375,-79.83,2231,,,MOHAWK RD E & EAST 45TH. ST. OPP. (@#778),MOHAWK opposite EAST 45TH,0,
43.22,0,2365,-79.87,2233,,,MOHAWK RD E & HAYDEN STREET,MOHAWK at HAYDEN,0,
43.21,0,2373,-79.84,2234,,,MOHAWK RD E & LAWFIELD DRIVE,MOHAWK at LAWFIELD,0,
43.22,0,2369,-79.85,2235,,,MOHAWK RD E & MALL ROAD,MOHAWK at MALL,0,
43.22,0,2325,-79.85,2236,,,MOHAWK RD E & MALL ROAD OPP.,MOHAWK opposite MALL,0,
43.22,0,2372,-79.84,2237,,,MOHAWK RD E & MEAFORD ROAD,MOHAWK at MEAFORD,0,
43.21,0,2374,-79.84,2240,,,MOHAWK RD E & PALMER ROAD,MOHAWK at PALMER,0,
43.22,0,2327,-79.86,2241,,,MOHAWK RD E & SEVEN OAKS DRIVE,MOHAWK at SEVEN OAKS,0,
43.22,0,2367,-79.86,2242,,,MOHAWK RD E & SEVEN OAKS DR OPP. (Op.#269),MOHAWK opposite SEVEN OAKS,0,
43.22,0,2329,-79.87,2243,,,MOHAWK RD E & TERRACE DR,MOHAWK at TERRACE,0,
43.21,0,2374,-79.84,2244,,,MOHAWK RD E & UPPER GAGE AVENUE,MOHAWK at UPPER GAGE,0,
43.21,0,2322,-79.84,2245,,,MOHAWK RD E & UPPER GAGE AVENUE,MOHAWK at UPPER GAGE,0,
43.22,0,2364,-79.88,2246,,,MOHAWK RD E & UPPER JAMES STREET,MOHAWK at UPPER JAMES,0,
43.22,0,2330,-79.88,2247,,,MOHAWK RD E & UPPER JAMES STREET,MOHAWK at UPPER JAMES,0,
43.21,0,2376,-79.83,2248,,,MOHAWK RD E & UPPER OTTAWA STREET,MOHAWK at UPPER OTTAWA,0,
43.22,0,2371,-79.85,2249,,,MOHAWK RD E & UPPER SHERMAN AVENUE,MOHAWK at UPPER SHERMAN,0,
43.22,0,2324,-79.85,2250,,,MOHAWK RD E & UPPER SHERMAN AVENUE,MOHAWK at UPPER SHERMAN,0,
43.22,0,2366,-79.87,2251,,,MOHAWK RD E & UPPER WELLINGTON STREET,MOHAWK at UPPER WELLINGTON,0,
43.22,0,2328,-79.87,2252,,,MOHAWK RD E & UPPER WELLINGTON STREET,MOHAWK at UPPER WELLINGTON,0,
43.22,0,2678,-79.86,2254,,,MOHAWK RD E & UPPER WENTWORTH STREET,MOHAWK at UPPER WENTWORTH,0,
43.22,0,2329,-79.87,2255,,,MOHAWK RD E & WARREN AV,MOHAWK at WARREN,0,
43.22,0,2365,-79.87,2256,,,MOHAWK RD E & WARREN AVENUE OPP. (@#88),MOHAWK opposite WARREN,0,
43.23,0,4144,-79.93,2257,,,MOHAWK RD,At 1288 MOHAWK,0,
43.23,0,2473,-79.93,2258,,,MOHAWK RD & #1281 ( W of SCENIC DRIVE),At 1281 MOHAWK,0,
43.23,0,2362,-79.88,2259,,,MOHAWK RD W & #185 W NEYER ST,MOHAWK opposite NEYER,0,
43.23,0,2361,-79.89,2260,,,MOHAWK RD W & #261 E SOUTHLEA DR.,At 261 MOHAWK,0,
43.23,0,2332,-79.89,2261,,,MOHAWK RD W & #263 E SOUTHLEA DR. OPP.,At 263 MOHAWK,0,
43.23,0,2339,-79.92,2262,,,MOHAWK RD W & #760 E MAGNOLIA DR.,At 760 MOHAWK,0,
43.23,0,2354,-79.92,2263,,,MOHAWK RD W & OPPOSITE #770,Opposite 770 MOHAWK,0,
43.23,0,2341,-79.92,2264,,,MOHAWK RD W & #924 (E OF SCENIC),At 924 MOHAWK,0,
43.22,0,1499,-79.88,2265,,,MOHAWK RD W & AMANDA STREET (OPP.) (@# 30),MOHAWK opposite AMANDA,0,
43.23,0,2358,-79.90,2266,,,MOHAWK RD W & ASHTON ROAD,MOHAWK at ASHTON,0,
43.23,0,2356,-79.91,2267,,,MOHAWK RD W & BUCKINGHAM DR OPP. (OP.# 704),MOHAWK opposite BUCKINGHAM,0,
43.23,0,2335,-79.90,2268,,,MOHAWK RD W & BUCKINGHAM DRIVE (EAST LEG),MOHAWK at BUCKINGHAM EAST,0,
43.23,0,2337,-79.91,2269,,,MOHAWK RD W & BUCKINGHAM DRIVE (WEST LEG),MOHAWK at BUCKINGHAM WEST,0,
43.22,0,2363,-79.88,2270,,,MOHAWK RD W & CALEDON AVENUE,MOHAWK at CALEDON,0,
43.23,0,2334,-79.90,2271,,,MOHAWK RD W & GARTH STREET,MOHAWK at GARTH,0,
43.23,0,2358,-79.90,2272,,,MOHAWK RD W & GARTH ST,MOHAWK at GARTH,0,
43.23,0,2335,-79.90,2273,,,MOHAWK RD W & JUANITA DR (OP. # 505),MOHAWK at JUANITA,0,
43.23,0,2339,-79.92,2274,,,MOHAWK RD W & MAGNOLIA DRIVE,MOHAWK at MAGNOLIA,0,
43.23,0,2354,-79.92,2275,,,MOHAWK RD W & MAGNOLIA DRIVE,MOHAWK at MAGNOLIA,0,
43.22,0,2659,-79.96,2276,,,MOHAWK RD & MCNIVEN ROAD,MOHAWK at MCNIVEN,0,
43.23,0,2360,-79.89,2277,,,MOHAWK RD W & MILLBANK PLACE,MOHAWK at MILLBANK,0,
43.23,0,2332,-79.88,2278,,,MOHAWK RD W & NEYER ST,MOHAWK at NEYER,0,
43.23,0,2473,-79.93,2279,,,MOHAWK RD & OLD MOHAWK ROAD,MOHAWK at OLD MOHAWK,0,
43.23,0,4144,-79.93,2280,,,MOHAWK RD & OLD MOHAWK ROAD OPP.,MOHAWK opposite OLD MOHAWK,0,
43.23,0,2338,-79.91,2281,,,MOHAWK RD W & RICE AV,MOHAWK at RICE,0,
43.23,0,2355,-79.91,2282,,,MOHAWK RD W & RICE AV,MOHAWK at RICE,0,
43.23,0,2341,-79.92,2283,,,MOHAWK RD W & SCENIC DRIVE,MOHAWK at SCENIC,0,
43.23,0,2361,-79.89,2284,,,MOHAWK RD W & SOUTHLEA DRIVE,MOHAWK at SOUTHLEA,0,
43.23,0,2332,-79.89,2285,,,MOHAWK RD W & SOUTHLEA DRIVE OPP. (@ # 296),MOHAWK opposite SOUTHLEA,0,
43.23,0,2353,-79.92,2286,,,MOHAWK RD W & UPPER HORNING DR,MOHAWK at UPPER HORNING,0,
43.23,0,2336,-79.91,2287,,,MOHAWK RD W & UPPER PARADISE ROAD,MOHAWK at UPPER PARADISE,0,
43.23,0,2356,-79.91,2288,,,MOHAWK RD W & UPPER PARADISE ROAD,MOHAWK at UPPER PARADISE,0,
43.23,0,2333,-79.89,2289,,,MOHAWK RD W & WEST 15TH STREET,MOHAWK at WEST 15TH,0,
43.23,0,2360,-79.89,2290,,,MOHAWK RD W & WEST 16TH STREET OPP.(@# 377),MOHAWK opposite WEST 16TH,0,
43.23,0,2333,-79.89,2291,,,MOHAWK RD W & WEST 18TH STREET,MOHAWK at WEST 18TH,0,
43.23,0,2331,-79.88,2293,,,MOHAWK RD W & WILCOX ST,MOHAWK at WEST 5TH,0,
43.22,0,2363,-79.88,2294,,,MOHAWK RD W & WEST 5TH STREET,MOHAWK at WEST 5TH,0,
43.21,0,2445,-79.79,2295,,,MOUNT ALBION RD & ALBRIGHT ROAD,MOUNT ALBION at ALBRIGHT,0,
43.21,0,2496,-79.79,2296,,,MOUNT ALBION RD & ALBRIGHT ROAD,MOUNT ALBION at ALBRIGHT,0,
43.22,0,2497,-79.79,2297,,,MOUNT ALBION RD & CHERRY HILL AVENUE,MOUNT ALBION at CHERRY HILL,0,
43.22,0,2445,-79.79,2298,,,MOUNT ALBION RD & CHERRY HILL AV OPP. (@# 94),MOUNT ALBION opposite CHERRY HILL,0,
43.20,0,2454,-79.80,2299,,,MOUNT ALBION RD & GLEN CASTLE DRIVE,MOUNT ALBION at GLEN CASTLE,0,
43.20,0,2489,-79.80,2300,,,MOUNT ALBION RD & GLENCASTLE DRIVE OPP.,MOUNT ALBION opposite GLEN CASTLE,0,
43.21,0,2454,-79.79,2301,,,MOUNT ALBION RD & GOLFCREST ROAD,MOUNT ALBION at GOLFCREST,0,
43.21,0,2490,-79.79,2302,,,MOUNT ALBION RD & GOLFCREST ROAD OPP.,MOUNT ALBION opposite GOLFCREST,0,
43.21,0,2447,-79.79,2303,,,MOUNT ALBION RD & GREENHILL AVENUE,MOUNT ALBION at GREENHILL,0,
43.21,0,2495,-79.79,2304,,,MOUNT ALBION RD & GREENHILL AVENUE,MOUNT ALBION at GREENHILL,0,
43.22,0,2445,-79.79,2305,,,MOUNT ALBION RD & HIXON ROAD,MOUNT ALBION at HIXON,0,
43.22,0,2498,-79.79,2306,,,MOUNT ALBION RD & HIXON RD,MOUNT ALBION at HIXON,0,
43.21,0,2454,-79.79,2307,,,MOUNT ALBION RD & KINGSWOOD DRIVE,MOUNT ALBION at KINGSWOOD,0,
43.21,0,2491,-79.79,2308,,,MOUNT ALBION RD & KINGSWOOD DRIVE OPP.,MOUNT ALBION opposite KINGSWOOD,0,
43.20,0,2455,-79.80,2309,,,PRIVATE RD & MOUNT ALBION LOOP,MOUNT ALBION LOOP,0,
43.21,0,2798,-79.75,2311,,,JONES ST & MOUNTAIN AV N,JONES at MOUNTAIN,0,
43.23,0,1008,-79.77,2315,,,NASH RD N & BARTON ST,NASH at BARTON,0,
43.23,0,2988,-79.77,2316,,,BARTON ST E & NASH RD N,BARTON at NASH,0,
43.22,0,2991,-79.77,2317,,,NASH RD S & DENTEN STREET,NASH at DENTEN,0,
43.22,0,1002,-79.77,2318,,,NASH RD S & DENTEN STREET OPP. (@ # 149),NASH opposite DENTEN,0,
43.23,0,1005,-79.77,2319,,,NASH RD N & KENTLEY DRIVE,NASH at KENTLEY,0,
43.23,0,2989,-79.77,2320,,,NASH RD N & KENTLEY DRIVE,NASH at KENTLEY,0,
43.23,0,2989,-79.77,2321,,,NASH RD N & NUGENT DRIVE,NASH at NUGENT NORTH,0,
43.23,0,2990,-79.77,2322,,,NASH RD N & NUGENT DRIVE,NASH at NUGENT SOUTH,0,
43.23,0,1005,-79.77,2323,,,NASH RD N & NUGENT DRIVE (SOUTH LEG) OPP.,NASH opposite NUGENT SOUTH,0,
43.23,0,1006,-79.77,2324,,,NASH RD N & NUGENT DRIVE (NORTH LEG) OPP,NASH opposite NUGENT NORTH,0,
43.22,0,1004,-79.77,2325,,,NASH RD S & QUEENSTON ROAD,NASH at QUEENSTON,0,
43.22,0,1003,-79.77,2326,,,NASH RD S & #105 S. DOVER DRIVE,At 105 NASH,0,
43.22,0,2991,-79.77,2327,,,NASH RD S & GLEN ECHO DRIVE (@ # 42),NASH at GLEN ECHO,0,
43.22,0,1003,-79.77,2328,,,NASH RD S & GLEN ECHO DR OPP. (Opp. #42),NASH opposite GLEN ECHO,0,
43.22,0,2992,-79.77,2329,,,NASH RD S & KING STREET,NASH at KING,0,
43.22,0,1002,-79.77,2330,,,NASH RD S & KING STREET(OPP. #230),NASH at KING,0,
43.23,0,2990,-79.77,2331,,,NASH RD N & QUEENSTON ROAD,NASH at QUEENSTON,0,
43.22,0,2991,-79.77,2332,,,NASH RD S & RAINBOW DRIVE,NASH at RAINBOW,0,
43.19,0,2153,-79.83,2333,,,NEBO RD & #260 N LANCING DR.,At 180 NEBO,0,
43.19,0,2482,-79.83,2334,,,NEBO RD & HEMPSTEAD DRIVE,NEBO at HEMPSTEAD,0,
43.19,0,2109,-79.83,2335,,,NEBO RD & LANCING DRIVE,NEBO at LANCING,0,
43.18,0,2148,-79.83,2336,,,NEBO RD & RYMAL ROAD,NEBO at RYMAL,0,
43.19,0,2124,-79.83,2337,,,NEBO RD & STONE CHURCH ROAD,NEBO at STONE CHURCH,0,
43.22,0,2474,-79.94,2338,,,NEVILLE DR & MARTINDALE CRESCENT,NEVILLE at MARTINDALE,0,
43.26,0,1197,-79.95,2339,,,OGILVIE ST & GOVERNORS ROAD,OGILVIE at GOVERNORS,0,
43.26,0,1105,-79.95,2340,,,OGILVIE ST & GOVERNORS ROAD,OGILVIE at GOVERNORS,0,
43.25,0,1317,-79.95,2341,,,OGILVIE ST & OLD ANCASTER ROAD,OGILVIE at OLD ANCASTER,0,
43.25,0,1106,-79.95,2342,,,OGILVIE ST & SOUTH STREET,OGILVIE at SOUTH,0,
43.25,0,1316,-79.95,2343,,,OGILVIE ST & OLD ANCASTER RD,OGILVIE at OLD ANCASTER,0,
43.25,0,1311,-79.95,2344,,,OLD ANCASTER RD & DUNDANA AVENUE,OLD ANCASTER at DUNDANA,0,
43.25,0,1317,-79.95,2346,,,OLD ANCASTER RD & PIMLICO DRIVE,OLD ANCASTER at PIMLICO,0,
43.25,0,1318,-79.95,2347,,,OLD ANCASTER RD & PLEASANT AVENUE,OLD ANCASTER at PLEASANT,0,
43.25,0,1310,-79.95,2348,,,OLD ANCASTER RD & PLEASANT AVENUE OPP.,OLD ANCASTER opposite PLEASANT,0,
43.27,0,1355,-79.93,2349,,,WATSON'S LANE LOOP & YORK RD,WATSONS LANE LOOP,0,
43.25,0,1307,-79.97,2350,,,ORCHARD AV & PLEASANT AVENUE,ORCHARD at PLEASANT,0,
43.25,0,1196,-79.94,2352,,,OSLER DR & GRANT BV,OSLER at GRANT,0,
43.25,0,1107,-79.94,2353,,,OSLER DR & OSLER CT OPP.,OSLER opposite OSLER,0,
43.25,0,1205,-79.94,2354,,,OSLER DR & OSLER CRT (@ # 104),OSLER at OSLER,0,
43.25,0,1050,-79.81,2355,,,OTTAWA ST N & BARTON STREET,OTTAWA at BARTON,0,
43.25,0,1036,-79.81,2356,,,OTTAWA ST N & BARTON STREET,OTTAWA at BARTON,0,
43.25,0,1341,-79.81,2357,,,OTTAWA ST N & BEACH ROAD,OTTAWA at BEACH,0,
43.25,0,1040,-79.81,2358,,,OTTAWA ST N & BURLINGTON STREET,OTTAWA at BURLINGTON,0,
43.24,0,1049,-79.81,2359,,,OTTAWA ST N & EDINBURGH AV,OTTAWA at EDINBURGH,0,
43.24,0,1035,-79.81,2360,,,OTTAWA ST N & CAMPBELL AVENUE,OTTAWA at CAMPBELL,0,
43.24,0,1049,-79.81,2361,,,OTTAWA ST N & CANNON STREET,OTTAWA at CANNON,0,
43.24,0,1035,-79.81,2362,,,OTTAWA ST N & CANNON STREET,OTTAWA at CANNON,0,
43.25,0,1034,-79.81,2363,,,OTTAWA ST N & CRAIGMILLER AVENUE,OTTAWA at CRAIGMILLER,0,
43.25,0,1051,-79.81,2364,,,OTTAWA ST N & CRAIGMILLER AVENUE OPP.,OTTAWA opposite CRAIGMILLER,0,
43.24,0,1048,-79.81,2365,,,OTTAWA ST N & DUNSMURE ROAD,OTTAWA at DUNSMURE,0,
43.24,0,1030,-79.81,2366,,,OTTAWA ST N & MAIN STREET,OTTAWA at MAIN,0,
43.24,0,1035,-79.81,2367,,,OTTAWA ST N & ROXBOROUGH AVENUE,OTTAWA at ROXBOROUGH,0,
43.24,0,1047,-79.81,2368,,,OTTAWA ST N & MAIN ST E,OTTAWA at MAIN,0,
43.24,0,1046,-79.82,2369,,,OTTAWA ST S & MAPLE AVENUE,OTTAWA at MAPLE,0,
43.24,0,1037,-79.82,2370,,,OTTAWA ST S & MAPLE AVENUE,OTTAWA at MAPLE,0,
43.26,0,1192,-79.89,2371,,,PARADISE RD S & #59 N MAIN ST.,PARADISE at MAIN,0,
43.19,0,2126,-79.81,2372,,,PARAMOUNT DR & UPPER MOUNT ALBION RD,PARAMOUNT at UPPER MOUNT ALBION,0,
43.19,0,2906,-79.81,2373,,,PARAMOUNT DR & UPPER MOUNT ALBION RD,PARAMOUNT at UPPER MOUNT ALBION,0,
43.20,0,2459,-79.79,2374,,,PARAMOUNT DR & AMBERWOOD STREET,PARAMOUNT at AMBERWOOD,0,
43.20,0,2483,-79.79,2375,,,PARAMOUNT DR & AMBERWOOD STREET OPP.,PARAMOUNT opposite AMBERWOOD,0,
43.20,0,2483,-79.79,2376,,,PARAMOUNT DR & APEX STREET,PARAMOUNT at APEX,0,
43.20,0,2459,-79.80,2377,,,PARAMOUNT DR & ASTRA STREET,PARAMOUNT at ASTRA,0,
43.19,0,2460,-79.79,2379,,,PARAMOUNT DR & ATLAS STREET,PARAMOUNT at ATLAS,0,
43.19,0,2481,-79.79,2380,,,PARAMOUNT DR & ATLAS STREET OPP.,PARAMOUNT opposite ATLAS,0,
43.20,0,2460,-79.79,2381,,,PARAMOUNT DR & AUCKLAND STREET OPP.,PARAMOUNT opposite ACKLAND,0,
43.20,0,2483,-79.79,2382,,,PARAMOUNT DR & AUDOBON STREET NORTH,PARAMOUNT at AUDUBON,0,
43.20,0,2460,-79.79,2383,,,PARAMOUNT DR & AUDOBON STREET NORTH OPP.,PARAMOUNT opposite AUDUBON,0,
43.19,0,2481,-79.79,2384,,,PARAMOUNT DR & AUDUBON STREET SOUTH,PARAMOUNT at AUDUBON,0,
43.19,0,2429,-79.80,2385,,,PARAMOUNT DR & WINTERBERRY DR,PARAMOUNT at BENWOOD,0,
43.19,0,2429,-79.80,2387,,,PARAMOUNT DR & CHILTON DRIVE OPP.,PARAMOUNT opposite CHILTON,0,
43.19,0,2459,-79.80,2388,,,PARAMOUNT DR & KINGSVIEW DR,PARAMOUNT at KINGSVIEW,0,
43.20,0,2486,-79.80,2389,,,PARAMOUNT DR & KINGSVIEW DR,PARAMOUNT at KINGSVIEW,0,
43.19,0,2429,-79.79,2390,,,PARAMOUNT DR & MARSTON STREET,PARAMOUNT at MARSTON,0,
43.19,0,2460,-79.79,2391,,,PARAMOUNT DR & MISTYWOOD DR,PARAMOUNT opposite MISTYWOOD,0,
43.19,0,2462,-79.79,2392,,,PARAMOUNT DR & MUD STREET,PARAMOUNT at MUD,0,
43.19,0,2462,-79.79,2393,,,PARAMOUNT DR & PEMBROKE STREET,PARAMOUNT at PEMBROKE,0,
43.19,0,2484,-79.79,2394,,,GREENHILL AV & QUIGLEY RD,PARAMOUNT opposite PEMBROKE,0,
43.19,0,2906,-79.81,2395,,,STONE CHURCH RD E & HERITAGE GREEN SHOPPING CENTRE,STONE CHURCH at HERITAGE GREENE,0,
43.19,0,2126,-79.81,2396,,,STONE CHURCH RD E & HERITAGE GREENE SHOPPING CENTRE,STONE CHURCH opposite HERITAGE GREENE,0,
43.19,0,2173,-79.79,2397,,,PARAMOUNT DR & VALLEY PARK LOOP,PARAMOUNT at VALLEY PARK LOOP,0,
43.25,0,2949,-79.87,2400,,,PARK ST S & CHARLTON AVENUE,PARK at CHARLTON,0,
43.24,0,2435,-79.78,2401,,,PARKDALE AV N & #423 (S. BURLAND CR.),At 423 PARKDALE,0,
43.24,0,2436,-79.78,2402,,,PARKDALE AV N & BARTON STREET,PARKDALE at BARTON,0,
43.24,0,2504,-79.78,2403,,,PARKDALE AV N & BARTON STREET,PARKDALE at BARTON,0,
43.25,0,2434,-79.78,2404,,,PARKDALE AV N & BRAMPTON STREET,PARKDALE at BRAMPTON,0,
43.25,0,2506,-79.78,2405,,,PARKDALE AV N & BRAMPTON STREET,PARKDALE at BRAMPTON,0,
43.24,0,2437,-79.78,2406,,,PARKDALE AV N & BRITANNIA AVENUE,PARKDALE at BRITANNIA,0,
43.24,0,2502,-79.78,2407,,,PARKDALE AV N & BRITANNIA AVENUE,PARKDALE at BRITANNIA,0,
43.25,0,2435,-79.78,2408,,,PARKDALE AV N & BURLAND CRESCENT,PARKDALE at BURLAND,0,
43.23,0,2439,-79.79,2409,,,PARKDALE AV N & DUNSMURE ROAD,PARKDALE at DUNSMURE,0,
43.23,0,2502,-79.79,2410,,,PARKDALE AV N & DUNSMURE ROAD,PARKDALE at DUNSMURE,0,
43.24,0,2436,-79.78,2411,,,PARKDALE AV N & MAHONEY AVENUE,PARKDALE at MAHONY,0,
43.24,0,2505,-79.78,2412,,,PARKDALE AV N & MAHONEY AVENUE OPP.,PARKDALE opposite MAHONY,0,
43.23,0,2440,-79.79,2413,,,PARKDALE AV S & MAIN STREET,PARKDALE at MAIN,0,
43.23,0,2501,-79.79,2414,,,PARKDALE AV S & MAIN STREET,PARKDALE at MAIN,0,
43.25,0,2510,-79.78,2415,,,PARKDALE AV N & MEAD AVENUE,PARKDALE at MEAD,0,
43.25,0,2434,-79.78,2416,,,PARKDALE AV N & MEAD AVENUE OPP.,PARKDALE opposite MEAD,0,
43.24,0,2437,-79.78,2417,,,PARKDALE AV N & MELVIN AVENUE,PARKDALE at MELVIN,0,
43.24,0,2503,-79.78,2418,,,PARKDALE AV N & MELVIN AVENUE,PARKDALE at MELVIN,0,
43.25,0,2506,-79.78,2419,,,PARKDALE AV N & MORLEY STREET,PARKDALE at MORLEY,0,
43.23,0,2441,-79.79,2420,,,PARKDALE AV S & QUEENSTON ROAD,PARKDALE at QUEENSTON,0,
43.24,0,2506,-79.78,2421,,,PARKDALE AV N & RENNIE STREET,PARKDALE at RENNIE,0,
43.23,0,2439,-79.79,2422,,,PARKDALE AV N & ROXBOROUGH AVENUE,PARKDALE at ROXBOROUGH,0,
43.23,0,2502,-79.79,2423,,,PARKDALE AV N & ROXBOROUGH AVENUE,PARKDALE at ROXBOROUGH,0,
43.23,0,2442,-79.79,2424,,,PARKDALE AV S & CENTRAL AVENUE,PARKDALE at CENTRAL,0,
43.23,0,2500,-79.79,2425,,,PARKDALE AV S & CENTRAL AVENUE,PARKDALE at CENTRAL,0,
43.22,0,2443,-79.79,2426,,,PARKDALE AV S & KING STREET EAST,PARKDALE at KING,0,
43.23,0,2442,-79.79,2427,,,PARKDALE AV S & LUCERNE AVENUE,PARKDALE at LUCERNE,0,
43.23,0,2499,-79.79,2428,,,PARKDALE AV S & LUCERNE AVENUE,PARKDALE at LUCERNE,0,
43.23,0,2501,-79.79,2429,,,PARKDALE AV S & QUEENSTON ROAD,PARKDALE at QUEENSTON,0,
43.25,0,1371,-79.98,2430,,,PIRIE DR & DAVIDSON BLVD,PIRIE at DAVIDSON,0,
43.25,0,1370,-79.98,2431,,,PIRIE DR & GOVERNORS ROAD,PIRIE at GOVERNORS,0,
43.25,0,1371,-79.98,2432,,,PIRIE DR & NEWCOMBE ROAD OPP.,PIRIE opposite NEWCOMBE,0,
43.29,0,1329,-79.86,2433,,,PLAINS RD W & #549 - United Church,At 549 PLAINS,0,
43.29,0,1328,-79.87,2434,,,PLAINS RD W & BOTANICAL DRIVE,PLAINS at BOTANICAL,0,
43.29,0,1333,-79.87,2435,,,PLAINS RD W & BOTANICAL DRIVE OPP.,PLAINS opposite BOTANICAL,0,
43.29,0,1325,-79.88,2436,,,PLAINS RD W & SPRING GARDENS,PLAINS at SPRING GARDENS,0,
43.29,0,1333,-79.88,2437,,,PLAINS RD W & SPRING GARDENS ROAD OPP.,PLAINS opposite SPRING GARDENS,0,
43.29,0,1333,-79.88,2438,,,PLAINS RD & YORK BLVD,PLAINS at YORK,0,
43.25,0,1319,-79.96,2439,,,PLEASANT AV & AUTUMN LEAF RD,PLEASANT opposite  AUTUMN LEAF,0,
43.25,0,1320,-79.96,2440,,,PLEASANT AV & EDENBRIDGE COURT,PLEASANT at EDENBRIDGE,0,
43.25,0,1320,-79.96,2441,,,PLEASANT AV & GREEN MEADOW WAY,PLEASANT at GREEN MEADOW,0,
43.25,0,1319,-79.96,2442,,,PLEASANT AV & SUNRISE CR,PLEASANT at SUNRISE,0,
43.19,0,2130,-79.81,2444,,,PRITCHARD RD & HIGHLAND ROAD,PRITCHARD at HIGHLAND,0,
43.23,0,1112,-79.81,2445,,,PROVINCE ST S & JUSTINE AVENUE,PROVINCE at JUSTINE,0,
43.24,0,2845,-79.88,2446,,,QUEEN ST S & ABERDEEN AVENUE,QUEEN at ABERDEEN,0,
43.24,0,2834,-79.88,2447,,,QUEEN ST S & ABERDEEN AVENUE,QUEEN at ABERDEEN,0,
43.25,0,2842,-79.88,2448,,,QUEEN ST S & CANADA STREET,QUEEN at CANADA,0,
43.25,0,2843,-79.88,2449,,,QUEEN ST S & CHARLTON AV W,QUEEN at CHARLTON,0,
43.25,0,2843,-79.88,2450,,,QUEEN ST S & DUKE STREET,QUEEN at DUKE,0,
43.25,0,2842,-79.87,2451,,,QUEEN ST S & MAIN STREET,QUEEN at MAIN,0,
43.25,0,2844,-79.88,2452,,,QUEEN ST S & STANLEY AVENUE,QUEEN at STANLEY,0,
43.25,0,2950,-79.88,2453,,,QUEEN ST S & STANLEY AVENUE,QUEEN at STANLEY,0,
43.24,0,2951,-79.88,2454,,,ABERDEEN AVE & QUEEN ST S,ABERDEEN at QUEEN,0,
43.23,0,2100,-79.86,2455,,,QUEENSDALE AV E & EAST 13TH STREET,QUEENSDALE at EAST 13TH,0,
43.23,0,2167,-79.86,2456,,,QUEENSDALE AV E & EAST 13TH STREET OPP. (@#301),QUEENSDALE opposite EAST 13TH,0,
43.23,0,2101,-79.86,2457,,,QUEENSDALE AV E & EAST 15TH STREET,QUEENSDALE at EAST 15TH,0,
43.23,0,2167,-79.86,2458,,,QUEENSDALE AV E & EAST 16TH STREET,QUEENSDALE at EAST 16TH,0,
43.23,0,2102,-79.85,2459,,,QUEENSDALE AV E & EAST 18TH STREET,QUEENSDALE at EAST 18TH,0,
43.23,0,2166,-79.85,2460,,,QUEENSDALE AV E & EAST 18TH STREET,QUEENSDALE at EAST 18TH,0,
43.23,0,2103,-79.85,2461,,,QUEENSDALE AV E & EAST 22ND STREET,QUEENSDALE at EAST 22ND,0,
43.23,0,2165,-79.85,2462,,,QUEENSDALE AV E & EAST 22ND STREET,QUEENSDALE at EAST 22ND,0,
43.23,0,2165,-79.85,2463,,,QUEENSDALE AV E & EAST 24TH STREET,QUEENSDALE at EAST 24TH,0,
43.23,0,2104,-79.85,2464,,,QUEENSDALE AV E & EAST 23TH STREET,QUEENSDALE at EAST 23RD,0,
43.23,0,2105,-79.84,2465,,,QUEENSDALE AV E & EAST 27TH STREET,QUEENSDALE at EAST 27TH,0,
43.23,0,2164,-79.84,2466,,,QUEENSDALE AV E & EAST 27TH STREET OPP. (@#647),QUEENSDALE opposite EAST 27TH,0,
43.23,0,2106,-79.84,2467,,,QUEENSDALE AV E & EAST 33RD STREET,QUEENSDALE at EAST 33RD,0,
43.23,0,2106,-79.84,2469,,,QUEENSDALE AV E & EAST 35TH STREET,QUEENSDALE at EAST 35TH,0,
43.23,0,2163,-79.84,2470,,,QUEENSDALE AV E & EAST 36TH STREET,QUEENSDALE at EAST 36TH,0,
43.23,0,2048,-79.83,2471,,,QUEENSDALE AV E & EAST 42ND STREET,QUEENSDALE at EAST 42ND,0,
43.23,0,2075,-79.83,2472,,,QUEENSDALE AV E & EAST 42ND STREET,QUEENSDALE at EAST 42ND,0,
43.23,0,2048,-79.83,2473,,,QUEENSDALE AV E & EAST 44TH STREET,QUEENSDALE at EAST 44TH,0,
43.23,0,2049,-79.83,2474,,,QUEENSDALE AV E & RENDELL BLVD,QUEENSDALE at RENDELL,0,
43.23,0,2074,-79.82,2475,,,QUEENSDALE AV E & RENDELL BLVD,QUEENSDALE at RENDELL,0,
43.23,0,2074,-79.83,2476,,,QUEENSDALE AV E & SHARON AVENUE,QUEENSDALE at SHARON,0,
43.23,0,2107,-79.83,2477,,,QUEENSDALE AV E & UPPER GAGE AVENUE,QUEENSDALE at UPPER GAGE,0,
43.23,0,2076,-79.83,2478,,,QUEENSDALE AV E & UPPER GAGE AVENUE,QUEENSDALE at UPPER GAGE,0,
43.22,0,2049,-79.82,2479,,,QUEENSDALE AV E & UPPER OTTAWA STREET,QUEENSDALE at UPPER OTTAWA,0,
43.23,0,2105,-79.84,2480,,,QUEENSDALE AV E & UPPER SHERMAN AVENUE,QUEENSDALE at UPPER SHERMAN,0,
43.23,0,2164,-79.84,2481,,,QUEENSDALE AV E & UPPER SHERMAN AVENUE,QUEENSDALE at UPPER SHERMAN,0,
43.23,0,2100,-79.86,2482,,,QUEENSDALE AV E & UPPER WELLINGTON STREET,QUEENSDALE at UPPER WELLINGTON,0,
43.23,0,2102,-79.85,2483,,,QUEENSDALE AV E & UPPER WENTWORTH STREET,QUEENSDALE at UPPER WENTWORTH,0,
43.23,0,2166,-79.85,2484,,,QUEENSDALE AV E & UPPER WENTWORTH STREET,QUEENSDALE at UPPER WENTWORTH,0,
43.23,0,2720,-79.78,2485,,,QUEENSTON RD & #484 E POTTRUFF RD.SOUTH,QUEENSTON at POTTRUFF,0,
43.23,0,2728,-79.77,2486,,,QUEENSTON RD & #575 E WOODMAN DR.,At 575 QUEENSTON,0,
43.23,0,2720,-79.77,2487,,,QUEENSTON RD & #640 E WOODMAN DR.,At 640 QUEENSTON,0,
43.22,0,2726,-79.77,2488,,,QUEENSTON RD & CLAPHAM RD,QUEENSTON opposite CLAPHAM,0,
43.22,0,2722,-79.76,2489,,,QUEENSTON RD & opposite EASTGATE SQUARE,QUEENSTON opposite EASTGATE SQUARE,0,
43.22,0,2389,-79.76,2490,,,QUEENSTON RD & #851 (W RIVERDALE DR.),QUEENSTON opposite RIVERDALE,0,
43.22,0,1353,-79.75,2491,,,QUEENSTON RD & #940 (E LAKE AVE.),At 940 QUEENSTON,0,
43.22,0,1354,-79.75,2492,,,QUEENSTON RD & #943 (E LAKE AVE.),At 943 QUEENSTON,0,
43.23,0,2729,-79.79,2493,,,QUEENSTON RD & ADAIR AVENUE,QUEENSTON at ADAIR,0,
43.22,0,2722,-79.77,2495,,,QUEENSTON RD & CLAPHAM ROAD,QUEENSTON at CLAPHAM,0,
43.23,0,2716,-79.80,2496,,,QUEENSTON RD & COCHRANE ROAD,QUEENSTON at COCHRANE,0,
43.23,0,2716,-79.79,2497,,,QUEENSTON RD & CRAIGROYSTON AVENUE,QUEENSTON at CRAIGROYSTON,0,
43.23,0,2719,-79.79,2498,,,QUEENSTON RD & DELENA AV S,QUEENSTON at DELENA,0,
43.22,0,2388,-79.74,2499,,,QUEENSTON RD & DONN AVENUE,QUEENSTON at DONN,0,
43.22,0,2545,-79.75,2500,,,QUEENSTON RD & DONN AVENUE,QUEENSTON at DONN,0,
43.22,0,2515,-79.74,2501,,,HIGHWAY NO. 8 & FIESTA MALL Ent (OPP. # 115),HIGHWAY 8 at FIESTA MALL,0,
43.22,0,2550,-79.74,2502,,,HIGHWAY NO. 8 & FIESTA MALL Ent. (@ # 115),At 115 HIGHWAY 8,0,
43.22,0,2391,-79.74,2503,,,HIGHWAY NO. 8 & FIESTA MALL Ent. (WEST of WEST,At 100 HIGHWAY 8,0,
43.22,0,2559,-79.74,2504,,,HIGHWAY NO. 8 & GRAY ROAD,HIGHWAY 8 at GRAY,0,
43.22,0,2516,-79.74,2506,,,HIGHWAY NO. 8 & GRAYS ROAD,HIGHWAY 8 at GRAY,0,
43.22,0,2513,-79.76,2507,,,QUEENSTON RD & IRENE AV,QUEENSTON at IRENE,0,
43.22,0,2547,-79.76,2508,,,QUEENSTON RD & IRENE AVENUE OPP. (@ # 831),QUEENSTON opposite IRENE,0,
43.23,0,2731,-79.79,2509,,,QUEENSTON RD & ISABEL AVENUE,QUEENSTON at ISABEL,0,
43.23,0,2716,-79.79,2510,,,QUEENSTON RD & ISABEL AVENUE OPP.,QUEENSTON opposite ISABEL,0,
43.22,0,2725,-79.76,2511,,,QUEENSTON RD & KENORA AVENUE,QUEENSTON at KENORA,0,
43.22,0,2546,-79.75,2512,,,QUEENSTON RD & LAKE AVENUE,QUEENSTON at LAKE,0,
43.22,0,2514,-79.75,2513,,,QUEENSTON RD & LAKE AVENUE,QUEENSTON at LAKE,0,
43.23,0,2727,-79.77,2514,,,QUEENSTON RD & NASH ROAD,QUEENSTON at NASH,0,
43.22,0,2721,-79.77,2515,,,QUEENSTON RD & NASH ROAD,QUEENSTON at NASH,0,
43.23,0,2730,-79.79,2516,,,QUEENSTON RD & PARKDALE AVENUE,QUEENSTON at PARKDALE,0,
43.23,0,2717,-79.79,2517,,,QUEENSTON RD & PARKDALE AVENUE,QUEENSTON at PARKDALE,0,
43.23,0,2728,-79.78,2518,,,QUEENSTON RD & POTTRUFF ROAD,QUEENSTON at POTTRUFF,0,
43.23,0,2729,-79.78,2519,,,QUEENSTON RD & REID AVENUE,QUEENSTON at REID,0,
43.23,0,2719,-79.78,2520,,,QUEENSTON RD & REID AVENUE,QUEENSTON at REID,0,
43.22,0,2387,-79.76,2521,,,QUEENSTON RD & RIVERDALE DRIVE,QUEENSTON at RIVERDALE,0,
43.23,0,2731,-79.79,2522,,,QUEENSTON RD & ROSEWOOD AVENUE,QUEENSTON at ROSEWOOD,0,
43.23,0,2731,-79.79,2523,,,QUEENSTON RD & WALTER AVENUE,QUEENSTON at WALTER,0,
43.23,0,2728,-79.77,2524,,,QUEENSTON RD & WOODMAN DRIVE,QUEENSTON at WOODMAN,0,
43.23,0,2720,-79.77,2525,,,QUEENSTON RD & WOODMAN DRIVE,QUEENSTON at WOODMAN,0,
43.21,0,2999,-79.78,2526,,,QUIGLEY RD & ALBRIGHT DRIVE OPP.,QUIGLEY opposite ALBRIGHT,0,
43.21,0,2995,-79.78,2527,,,QUIGLEY RD & ALBRIGHT ROAD,QUIGLEY at ALBRIGHT,0,
43.21,0,1306,-79.78,2528,,,QUIGLEY RD & ANGUS ROAD,QUIGLEY at ANGUS,0,
43.21,0,2993,-79.78,2529,,,QUIGLEY RD & ANGUS RD,QUIGLEY opposite ANGUS,0,
43.21,0,2450,-79.78,2530,,,QUIGLEY RD & GREENHILL AV,QUIGLEY at GREENHILL,0,
43.20,0,2997,-79.78,2531,,,QUIGLEY RD & GREENHILL AVENUE,QUIGLEY at GREENHILL,0,
43.21,0,4050,-79.78,2532,,,QUIGLEY RD & GREENHILL AV,QUIGLEY at GREENHILL,0,
43.22,0,1306,-79.78,2533,,,QUIGLEY RD & KING STREET,QUIGLEY at KING,0,
43.22,0,2993,-79.78,2534,,,QUIGLEY RD & KING STREET,QUIGLEY at KING,0,
43.22,0,1306,-79.78,2535,,,QUIGLEY RD & PINARD STREET,QUIGLEY at PINARD,0,
43.22,0,2993,-79.78,2536,,,QUIGLEY RD & PINARD STREET OPP.,QUIGLEY opposite PINARD,0,
43.21,0,2996,-79.78,2537,,,QUIGLEY RD & ST. ANDREWS DRIVE,QUIGLEY at ST. ANDREWS,0,
43.21,0,2998,-79.78,2538,,,QUIGLEY RD & ST. ANDREWS DR OPP. (@ # 275),QUIGLEY opposite ST. ANDREWS,0,
43.21,0,2998,-79.78,2539,,,QUIGLEY RD & VEEVERS DRIVE,QUIGLEY at VEEVERS,0,
43.21,0,2996,-79.78,2540,,,QUIGLEY RD & VEEVERS DRIVE OPP.,QUIGLEY opposite VEEVERS,0,
43.25,0,2946,-79.86,2541,,,REBECCA ST & HUGHSON STREET,REBECCA at HUGHSON,0,
43.24,0,1331,-79.91,2542,,,REDFERN AV & ST. PETER'S,REDFERN at ST. PETERS,0,
43.23,0,1285,-79.78,2543,,,REID AV N & DUNSMURE ROAD,REID opposite DUNSMURE,0,
43.23,0,1285,-79.78,2544,,,REID AV N & GLENGROVE AVENUE,REID at GLENGROVE,0,
43.23,0,2351,-79.91,2545,,,RICE AV & #70 N MOHAWK RD.,At 70 RICE,0,
43.23,0,2343,-79.91,2546,,,RICE AV & #70  (OPP),Opposite 70 RICE,0,
43.23,0,2351,-79.91,2547,,,RICE AV & CHEDMAC DRIVE,RICE at CHEDMAC,0,
43.23,0,2343,-79.91,2549,,,RICE AV & SANATORIUM ROAD,RICE at SANATORIUM,0,
43.22,0,1139,-79.81,2550,,,ROSEDALE AV & DUMBARTON STREET,ROSEDALE at DUMBARTON,0,
43.22,0,1139,-79.81,2551,,,ROSEDALE AV & DUNDONALD AVENUE,ROSEDALE at DUNDONALD,0,
43.22,0,1138,-79.80,2552,,,ROSEDALE AV & DUNKIRK DRIVE,ROSEDALE at DUNKIRK,0,
43.22,0,1140,-79.81,2553,,,ROSEDALE AV & GREENHILL AVENUE,ROSEDALE at GREENHILL,0,
43.23,0,1138,-79.80,2554,,,ROSEDALE AV & LAWRENCE ROAD,ROSEDALE at LAWRENCE,0,
43.22,0,1139,-79.80,2555,,,ROSEDALE AV & MONTROSE AVENUE,ROSEDALE at MONTROSE,0,
43.23,0,1133,-79.82,2556,,,ROSSLYN AV S & JUSTINE AVENUE,ROSSLYN at JUSTINE,0,
43.22,0,2658,-79.97,2557,,,ROUSSEAUX ST & ACADEMY STREET,ROUSSEAUX at ACADEMY,0,
43.22,0,2669,-79.97,2558,,,ROUSSEAUX ST & ACADEMY STREET OPP.,ROUSSEAUX opposite ACADEMY,0,
43.23,0,2658,-79.97,2560,,,ROUSSEAUX ST & WILSON ST E,ROUSSEAUX at WILSON,0,
43.23,0,1283,-79.78,2561,,,ROXBOROUGH AV & ADAIR AVENUE,ROXBOROUGH at ADAIR,0,
43.23,0,1286,-79.78,2562,,,ROXBOROUGH AV & ADAIR AV N,ROXBOROUGH at ADAIR,0,
43.24,0,1282,-79.79,2563,,,ROXBOROUGH AV & ADELINE AVENUE,ROXBOROUGH at ADELINE,0,
43.23,0,1284,-79.78,2565,,,ROXBOROUGH AV & BELAND AVENUE,ROXBOROUGH at BELAND,0,
43.24,0,1287,-79.79,2566,,,ROXBOROUGH AV & IVON AVENUE,ROXBOROUGH at IVON,0,
43.24,0,1282,-79.79,2567,,,ROXBOROUGH AV & JULIAN AVENUE,ROXBOROUGH at JULIAN,0,
43.23,0,1283,-79.79,2569,,,ROXBOROUGH AV & PARKDALE AVENUE,ROXBOROUGH at PARKDALE,0,
43.23,0,1286,-79.79,2570,,,ROXBOROUGH AV & PARKDALE AVENUE,ROXBOROUGH at PARKDALE,0,
43.24,0,1288,-79.79,2571,,,ROXBOROUGH AV & STRATHEARNE AVENUE,ROXBOROUGH at STRATHEARNE,0,
43.24,0,1282,-79.79,2572,,,ROXBOROUGH AV & TOLTON AVENUE,ROXBOROUGH at TOLTON,0,
43.24,0,1287,-79.79,2573,,,ROXBOROUGH AV & TOLTON AVENUE,ROXBOROUGH at TOLTON,0,
43.19,0,2187,-79.85,2576,,,RYMAL RD E & #829 (W of Upper Gage),RYMAL opposite SULMONA,0,
43.19,0,2188,-79.86,2577,,,RYMAL RD E & EVA STREET,RYMAL at EVA,0,
43.19,0,2787,-79.88,2578,,,RYMAL RD E & MESSENA DRIVE,RYMAL at MESSENA,0,
43.19,0,1367,-79.88,2579,,,RYMAL RD E & MESSENA DRIVE (OPP),RYMAL opposite MESSENA,0,
43.19,0,2192,-79.85,2580,,,RYMAL RD E & MILES ROAD,RYMAL at MILES,0,
43.19,0,1367,-79.87,2581,,,RYMAL RD E & REPUBLIC AVENUE (OPP),RYMAL opposite REPUBLIC,0,
43.19,0,2787,-79.87,2582,,,RYMAL RD E & REPUBLIC DRIVE,RYMAL at REPUBLIC,0,
43.19,0,2192,-79.85,2583,,,RYMAL RD E & UPPER GAGE AVENUE,RYMAL at UPPER GAGE WEST,0,
43.19,0,1367,-79.87,2584,,,RYMAL RD E & UPPER WENTWORTH STREET,RYMAL at UPPER WENTWORTH WEST,0,
43.20,0,2918,-79.90,2585,,,RYMAL RD W & BISHOP RYAN WY,RYMAL opposite HAZELTON,0,
43.20,0,2917,-79.90,2586,,,RYMAL RD W & BISHOP RYAN WY,RYMAL at HAZELTON,0,
43.20,0,2917,-79.90,2587,,,RYMAL RD W & KONSTANTINE COURT,RYMAL at KONSTANTINE,0,
43.20,0,2918,-79.90,2588,,,RYMAL RD W & KRIEGHOFF DRIVE,RYMAL at KRIEGHOFF,0,
43.20,0,2915,-79.89,2589,,,RYMAL RD W & SOUTH HAMILTON SQ. MALL (Op.#4,RYMAL at SOUTH HAMILTON SQUARE MALL,0,
43.20,0,2914,-79.89,2590,,,RYMAL RD W & SOUTH HAMILTON SQ.,RYMAL opposite SOUTH HAMILTON SQUARE,0,
43.20,0,2918,-79.89,2591,,,RYMAL RD W & WEST 5TH STEET,RYMAL at WEST 5TH,0,
43.20,0,2917,-79.89,2592,,,RYMAL RD W & WEST 5TH,RYMAL at WEST 5TH,0,
43.20,0,2918,-79.90,2593,,,RYMAL RD W & WESTLAWN DRIVE,RYMAL at WESTLAWN,0,
43.20,0,2917,-79.90,2594,,,RYMAL RD W & WESTLAWN DRIVE OPP. @#226),RYMAL opposite WESTLAWN,0,
43.21,0,2832,-79.92,2595,,,RYMAL RD W & WESTMOUNT HEALTH CTRE - #723,RYMAL at WESTMOUNT HEALTH CENTRE,0,
43.24,0,2851,-79.92,2596,,,SAN ANTONIO DR & ARGO STREET,SAN ANTONIO at ARGO,0,
43.23,0,2851,-79.92,2597,,,SAN ANTONIO DR & SAN REMO DRIVE,SAN ANTONIO at SAN REMO,0,
43.24,0,2852,-79.92,2598,,,SAN PEDRO DR & SAN ANTONIO DRIVE,SAN PEDRO at SAN ANTONIO,0,
43.24,0,2852,-79.92,2599,,,SAN PEDRO DR & SAN DIEGO CT,SAN PEDRO at SAN DIEGO,0,
43.24,0,2858,-79.92,2600,,,SAN PEDRO DR & SAN MARCO STREET,SAN PEDRO at SAN MARCO,0,
43.24,0,1339,-79.92,2601,,,SAN REMO DR & ARGO STREET,SAN REMO at ARGO,0,
43.23,0,2860,-79.92,2602,,,SAN REMO DR & LAVINA CRESCENT,SAN REMO at LAVINA,0,
43.23,0,1338,-79.92,2603,,,SAN REMO DR & LAVINA CRESCENT,SAN REMO at LAVINA,0,
43.23,0,1338,-79.92,2604,,,SAN REMO DR & SAN ANTONIO DRIVE,SAN REMO at SAN ANTONIO,0,
43.23,0,2002,-79.91,2605,,,SANATORIUM RD & #449 E RICE AVE.,SANATORIUM opposite WEST 33RD,0,
43.24,0,2347,-79.91,2606,,,SANATORIUM BROW BUILDING LOOP & SANATORIUM RD,SANATORIUM BROW BUILDING LOOP,0,
43.24,0,2350,-79.91,2607,,,SANATORIUM RD & EVEL PAVILION (S Redfern Ave.,SANATORIUM at EVEL PAVILION,0,
43.24,0,2344,-79.91,2608,,,SANATORIUM RD & EVEL PAVILION OPP.(S Renfern,SANATORIUM opposite EVEL PAVILION,0,
43.23,0,2174,-79.90,2609,,,SANATORIUM RD & GARTH STREET,SANATORIUM at GARTH,0,
43.24,0,2349,-79.91,2610,,,SANATORIUM RD & REDFERN AVENUE OPP,SANATORIUM opposite REDFERN,0,
43.23,0,2829,-79.91,2611,,,SANATORIUM RD & RICE AVENUE,SANATORIUM at RICE,0,
43.23,0,2002,-79.91,2612,,,SANATORIUM RD & RICE AVENUE,SANATORIUM at RICE,0,
43.24,0,2348,-79.91,2613,,,SANATORIUM RD,SANATORIUM at BROW BUILDING,0,
43.24,0,2346,-79.91,2614,,,SANATORIUM RD & SANATORIUM BROW BUILDING OPP.,SANATORIUM opposite BROW BUILDING,0,
43.24,0,2348,-79.91,2615,,,SANATORIUM RD & SCENIC DRIVE (EAST),SANATORIUM at SCENIC EAST,0,
43.24,0,2856,-79.91,2616,,,SANATORIUM RD & SCENIC DRIVE (WEST),SANATORIUM at SCENIC WEST,0,
43.24,0,2859,-79.91,2617,,,SANATORIUM RD & SCENIC DRIVE (WEST),SANATORIUM at SCENIC WEST,0,
43.23,0,2827,-79.91,2618,,,SANATORIUM RD & UPPER PARADISE ROAD,SANATORIUM at UPPER PARADISE,0,
43.23,0,2003,-79.91,2619,,,SANATORIUM RD & UPPER PARADISE ROAD,SANATORIUM at UPPER PARADISE,0,
43.23,0,2826,-79.90,2620,,,SANATORIUM RD & WEST 22ND STREET,SANATORIUM at WEST 22ND,0,
43.23,0,2004,-79.90,2621,,,SANATORIUM RD & WEST 22ND ST OPP. (@# 213),SANATORIUM opposite WEST 22ND,0,
43.23,0,2826,-79.90,2622,,,SANATORIUM RD & WEST 24TH STREET,SANATORIUM at WEST 24TH,0,
43.23,0,2004,-79.90,2623,,,SANATORIUM RD & WEST 24TH ST OPP. (@# 243),SANATORIUM opposite WEST 24TH,0,
43.23,0,2827,-79.90,2624,,,SANATORIUM RD & WEST 26TH STREET,SANATORIUM at WEST 26TH,0,
43.23,0,2004,-79.90,2625,,,SANATORIUM RD & WEST 26TH ST OPP. (@# 293),SANATORIUM opposite WEST 26TH,0,
43.23,0,2828,-79.91,2626,,,SANATORIUM RD & WEST 33RD STREET,SANATORIUM at WEST 33RD,0,
43.23,0,2350,-79.91,2627,,,SANATORIUM RD & WILCOX BLDG ( Chedoke Hospital,SANATORIUM at WILCOX BUILDING,0,
43.23,0,2344,-79.91,2628,,,SANATORIUM RD & WILCOX BLDG OPP.( Chedoke Hos,SANATORIUM opposite WILCOX BUILDING,0,
43.23,0,2342,-79.92,2629,,,SCENIC DR & LAVENDER DRIVE,SCENIC LOOP,0,
43.24,0,2876,-79.90,2630,,,SCENIC DR & LYLE AVENUE,SCENIC at LYLE,0,
43.24,0,2879,-79.90,2631,,,SCENIC DR & LYLE AVENUE OPP. (@# 510),SCENIC opposite LYLE,0,
43.21,0,1441,-80.01,2632,,,SHAVER RD & JERSEYVILLE ROAD,SHAVER at JERSEYVILLE,0,
43.21,0,1441,-80.01,2633,,,SHAVER RD & MORWICK DRIVE,SHAVER opposite SUMAC,0,
43.21,0,1423,-80.01,2634,,,SHAVER RD & MORWICK DRIVE OPP.,SHAVER opposite MORWICK,0,
43.19,0,1428,-80.01,2635,,,SHAVER RD & GARNER RD,SHAVER at GARNER,0,
43.20,0,1440,-80.01,2637,,,SHAVER RD & WESTVIEW AVENUE,SHAVER at WESTVIEW,0,
43.20,0,1422,-80.01,2638,,,SHAVER RD & WILSON ST NORTH SIDE,SHAVER at WILSON,0,
43.20,0,1428,-80.01,2639,,,SHAVER RD & WILSON ST W SOUTH SIDE,SHAVER at WILSON,0,
43.25,0,1071,-79.83,2641,,,SHERMAN AV N & FIFE ST (@# 44),SHERMAN opposite FIFE,0,
43.22,0,2527,-79.74,2642,,,HIGHWAY NO. 8 & GRAYS ROAD,FIESTA MALL LOOP,0,
43.26,0,1313,-79.94,2643,,,SOUTH ST W & LYNDEN AVENUE,SOUTH at LYNDEN,0,
43.26,0,1315,-79.95,2644,,,SOUTH ST W & LYNDEN AVENUE OPP.,SOUTH opposite LYNDEN,0,
43.26,0,1313,-79.94,2645,,,SOUTH ST E & OSLER DRIVE,SOUTH at OSLER,0,
43.26,0,1315,-79.94,2646,,,SOUTH ST W & OSLER DRIVE,SOUTH at OSLER,0,
43.28,0,1332,-79.87,2647,,,SPRING GARDENS RD & BOTANICAL DRIVE,SPRING GARDENS at BOTANICAL,0,
43.28,0,1324,-79.87,2648,,,SPRING GARDENS RD & WOODLAND CEMETERY,SPRING GARDENS opposite WOODLAND,0,
43.24,0,2911,-79.87,2649,,,ST. JOSEPH'S DR & JAMES STREET SOUTH,ST. JOSEPHS at JAMES,0,
43.24,0,2016,-79.87,2650,,,ST. JOSEPH'S DR & MOUNTWOOD AVENUE,ST. JOSEPHS at MOUNTWOOD,0,
43.24,0,2017,-79.87,2651,,,ST. JOSEPH'S DR & MOUNTWOOD AVENUE,ST. JOSEPHS at MOUNTWOOD,0,
43.22,0,1113,-79.77,2652,,,ST. JOSEPH'S EMERGENCY CARE & KING ST E,ST. JOSEPHS AMBULATORY at KING,0,
43.22,0,1113,-79.77,2653,,,ST. JOSEPH'S EMERGENCY CARE & FRONT DOOR E of Nash,ST. JOSEPHS AMBULATORY ENTRANCE,0,
43.26,0,1120,-79.91,2654,,,STERLING ST & DALEWOOD AVENUE,STERLING at DALEWOOD,0,
43.26,0,1181,-79.91,2655,,,STERLING ST & DALEWOOD AVENUE,STERLING at DALEWOOD,0,
43.26,0,1119,-79.91,2658,,,STERLING ST & FORSYTH AVENUE,STERLING at FORSYTH,0,
43.26,0,1120,-79.91,2659,,,STERLING ST & HADDON AVENUE,STERLING at HADDON,0,
43.26,0,1181,-79.90,2660,,,STERLING ST & HADDON AVENUE,STERLING at HADDON,0,
43.26,0,1119,-79.91,2661,,,STERLING ST & UNIVERSITY AVENUE,STERLING at UNIVERSITY,0,
43.26,0,1119,-79.91,2662,,,STERLING ST & UNIVERSITY AVENUE,STERLING at UNIVERSITY,0,
43.26,0,1097,-79.91,2663,,,STERLING ST & UNIVERSITY AVENUE,STERLING at UNIVERSITY,0,
43.26,0,1182,-79.91,2664,,,STERLING ST & UNIVERSITY AVENUE,STERLING at UNIVERSITY,0,
43.24,0,1173,-79.85,2665,,,STINSON ST & EMERALD STREET,STINSON at EMERALD,0,
43.24,0,1126,-79.85,2666,,,STINSON ST & EMERALD STREET,STINSON at EMERALD,0,
43.24,0,1172,-79.85,2667,,,STINSON ST & ERIE AVENUE,STINSON at ERIE,0,
43.24,0,1126,-79.85,2668,,,STINSON ST & ERIE AVENUE,STINSON at ERIE,0,
43.24,0,1172,-79.85,2669,,,STINSON ST & GRANT STREET,STINSON at GRANT,0,
43.24,0,1173,-79.85,2670,,,STINSON ST & VICTORIA AVENUE,STINSON at VICTORIA,0,
43.24,0,1125,-79.85,2671,,,STINSON ST & VICTORIA AVENUE,STINSON at VICTORIA,0,
43.24,0,1174,-79.86,2672,,,STINSON ST & WELLINGTON STREET,STINSON at WELLINGTON,0,
43.24,0,1127,-79.85,2673,,,STINSON ST & WENTWORTH STREET,STINSON at WENTWORTH,0,
43.19,0,2119,-79.83,2674,,,STONE CHURCH RD E & #1320 W DARTNALL RD.,At 1320 STONE CHURCH EAST,0,
43.19,0,2152,-79.83,2675,,,STONE CHURCH RD E & #1320 W DARTNALL RD. OPP.,Opposite 1320 STONE CHURCH,0,
43.19,0,2119,-79.82,2676,,,STONE CHURCH RD E & ANCHOR ROAD,STONE CHURCH at ANCHOR,0,
43.19,0,2172,-79.82,2677,,,STONE CHURCH RD E & ARBOUR ROAD,STONE CHURCH at ARBOUR,0,
43.21,0,2392,-79.88,2678,,,STONE CHURCH RD E & BENJAMIN DRIVE,STONE CHURCH at BENJAMIN,0,
43.20,0,2394,-79.87,2679,,,STONE CHURCH RD E & BRIGADE DR,STONE CHURCH at BRIGADE,0,
43.20,0,2394,-79.87,2680,,,STONE CHURCH RD E & BRIGADE DR OPP.,STONE CHURCH opposite BRIGADE,0,
43.19,0,2119,-79.82,2681,,,STONE CHURCH RD E & DARTNALL ROAD,STONE CHURCH at DARTNAL,0,
43.19,0,2152,-79.82,2682,,,STONE CHURCH RD E & DARTNALL ROAD,STONE CHURCH opposite DARTNALL,0,
43.20,0,2395,-79.88,2683,,,STONE CHURCH RD E & DICENZO DR,STONE CHURCH at DICENZO,0,
43.19,0,2120,-79.82,2684,,,STONE CHURCH RD E & HAMILTON MT. BOWL OPP.(@# 1520,At 1520 STONE CHURCH EAST,0,
43.19,0,2803,-79.83,2685,,,STONE CHURCH RD E & NEBO ROAD,STONE CHURCH at NEBO,0,
43.19,0,2152,-79.83,2686,,,STONE CHURCH RD E & NEBO RD,STONE CHURCH opposite NEBO,0,
43.20,0,2190,-79.85,2687,,,STONE CHURCH RD E & NORMA JEAN AVENUE,STONE CHURCH at NORMAJEAN,0,
43.19,0,2120,-79.81,2688,,,STONE CHURCH RD E & PRITCHARD ROAD,STONE CHURCH at PRITCHARD,0,
43.19,0,2172,-79.81,2689,,,STONE CHURCH RD E & PRITCHARD ROAD,STONE CHURCH at PRITCHARD,0,
43.20,0,2751,-79.84,2690,,,STONE CHURCH RD E & QUINN AVENUE,STONE CHURCH at QUINN,0,
43.20,0,2724,-79.85,2691,,,STONE CHURCH RD E & RAMBO STREET,STONE CHURCH at RAMBO,0,
43.20,0,2723,-79.86,2692,,,STONE CHURCH RD E & REDMOND DRIVE,STONE CHURCH at REDMOND,0,
43.20,0,2151,-79.86,2693,,,STONE CHURCH RD E & RIDGEMOUNT DRIVE,STONE CHURCH at RIDGEMOUNT,0,
43.20,0,2820,-79.84,2694,,,STONE CHURCH RD E & TAYMALL STREET,STONE CHURCH at TAYMALL,0,
43.20,0,2190,-79.85,2695,,,STONE CHURCH RD E & UPPER GAGE AVENUE,STONE CHURCH at UPPER GAGE,0,
43.20,0,2751,-79.85,2696,,,STONE CHURCH RD E & UPPER GAGE AV,STONE CHURCH at UPPER GAGE,0,
43.19,0,2820,-79.84,2697,,,STONE CHURCH RD E & UPPER OTTAWA STREET,STONE CHURCH at UPPER OTTAWA,0,
43.19,0,2752,-79.84,2698,,,STONE CHURCH RD E & UPPER OTTAWA STREET,STONE CHURCH at UPPER OTTAWA,0,
43.20,0,2159,-79.86,2699,,,STONE CHURCH RD E & UPPER SHERMAN AVENUE,STONE CHURCH at UPPER SHERMAN,0,
43.20,0,2724,-79.85,2700,,,STONE CHURCH RD E & UPPER SHERMAN AVENUE,STONE CHURCH at UPPER SHERMAN,0,
43.20,0,2393,-79.87,2701,,,STONE CHURCH RD E & UPPER WELLINGTON ST,STONE CHURCH at UPPER WELLINGTON,0,
43.20,0,2395,-79.87,2702,,,STONE CHURCH RD E & UPPER WELLINGTON ST,STONE CHURCH at UPPER WELLINGTON,0,
43.20,0,2151,-79.86,2703,,,STONE CHURCH RD E & UPPER WENTWORTH ST,STONE CHURCH at UPPER WENTWORTH,0,
43.21,0,2357,-79.89,2704,,,STONE CHURCH RD W & CHESLEY ST,STONE CHURCH at CHESLEY,0,
43.21,0,2396,-79.89,2705,,,STONE CHURCH RD W & CHESLEY ST OPP.,STONE CHURCH at CHESLEY,0,
43.21,0,2398,-79.91,2706,,,STONE CHURCH RD W & COURTLAND AVE,STONE CHURCH at COURTLAND,0,
43.21,0,2340,-79.91,2707,,,STONE CHURCH RD W & COURTLAND AV,STONE CHURCH at COURTLAND,0,
43.21,0,2398,-79.90,2708,,,STONE CHURCH RD W & GARTH ST,STONE CHURCH at GARTH,0,
43.21,0,2340,-79.90,2709,,,STONE CHURCH RD W & GARTH ST,STONE CHURCH at GARTH,0,
43.21,0,2888,-79.92,2710,,,STONE CHURCH RD W & GURNETT GATE,STONE CHURCH at GURNETT,0,
43.22,0,2867,-79.93,2711,,,STONE CHURCH RD & HARROGATE DR.,STONE CHURCH at HARROGATE,0,
43.21,0,2345,-79.90,2712,,,STONE CHURCH RD W & MATHEWS ST,STONE CHURCH at MATTHEWS,0,
43.21,0,2397,-79.90,2713,,,STONE CHURCH RD W & MATHEWS ST OPP.,STONE CHURCH opposite MATTHEWS,0,
43.22,0,2326,-79.93,2714,,,STONE CHURCH RD & OLD GOLFLINKS RD,STONE CHURCH at OLD GOLFLINKS,0,
43.21,0,2868,-79.92,2716,,,STONE CHURCH RD W & OMNI BLVD OPP. ( @#769),STONE CHURCH opposite OMNI,0,
43.21,0,2909,-79.89,2717,,,STONE CHURCH RD W & UPPER JAMES STREET,STONE CHURCH at UPPER JAMES,0,
43.21,0,2786,-79.88,2718,,,STONE CHURCH RD W & UPPER JAMES STREET,STONE CHURCH at UPPER JAMES,0,
43.21,0,4334,-79.91,2719,,,STONE CHURCH RD W & UPPER PARADISE RD,STONE CHURCH at UPPER PARADISE,0,
43.21,0,2868,-79.91,2721,,,STONE CHURCH RD W & UPPER PARADISE ROAD,STONE CHURCH at UPPER PARADISE,0,
43.21,0,2786,-79.89,2722,,,STONE CHURCH RD W & WEST 5TH STEET,STONE CHURCH at WEST 5TH,0,
43.21,0,2909,-79.89,2723,,,STONE CHURCH RD W & WEST 5TH ST,STONE CHURCH at WEST 5TH,0,
43.26,0,2982,-79.88,2724,,,STRATHCONA AV N & TOM STREET OPP.,STRATHCONA opposite TOM,0,
43.26,0,2982,-79.88,2725,,,STRATHCONA AV N & YORK BOULEVARD,STRATHCONA at YORK,0,
43.26,0,2981,-79.88,2726,,,STRATHCONA AV N & LAMOREAUX STREET,STRATHCONA LOOP,0,
43.24,0,1288,-79.79,2728,,,STRATHEARNE AV & BRITANNIA AVENUE,STRATHEARNE at BRITANNIA,0,
43.25,0,1308,-79.96,2730,,,TURNBULL RD & AUTUMN LEAF ROAD OPP.,TURNBULL opposite AUTUMN LEAF,0,
43.25,0,1308,-79.96,2731,,,TURNBULL RD & KINGS GATE OPP.,TURNBULL opposite KINGS GATE,0,
43.25,0,1309,-79.96,2732,,,TURNBULL RD & TERRACE DRIVE ( @#9),TURNBULL at TERRACE,0,
43.19,0,2117,-79.84,2734,,,UNSWORTH DR & UPPER OTTAWA STREET,UNSWORTH at UPPER OTTAWA,0,
43.20,0,2183,-79.84,2735,,,UP/GAGE AV & LINC (S of) @pole #9065,UPPER GAGE at LINC SOUTH,0,
43.19,0,2194,-79.85,2736,,,UP/GAGE AV & # 1475 (N of Royal Vista Dr.),At 1475 UPPER GAGE,0,
43.22,0,2199,-79.84,2737,,,UP/GAGE AV & #801 N MOHAWK RD.,At 801 UPPER GAGE,0,
43.21,0,2198,-79.84,2738,,,UP/GAGE AV & #877 N FOLEY ST OPP.,At 877 UPPER GAGE,0,
43.21,0,2180,-79.84,2739,,,UP/GAGE AV & #890 N FOLEY AVE.,UPPER GAGE at FOLEY,0,
43.20,0,2195,-79.84,2740,,,UPPER GAGE AV & RAMP UPPER GAGE NB TO LINC EB,UPPER GAGE at LINC SOUTH,0,
43.19,0,2194,-79.85,2741,,,UP/GAGE AV & ANNA CAPRI DRIVE,UPPER GAGE at ANNA CAPRI,0,
43.20,0,2185,-79.85,2742,,,UP/GAGE AV & ANNA CAPRI DRIVE.OPP. (@#1426),UPPER GAGE opposite ANNA CAPRI,0,
43.21,0,2197,-79.84,2743,,,UP/GAGE AV & BERYL STREET,UPPER GAGE at BERYL,0,
43.23,0,2175,-79.83,2744,,,UP/GAGE AV & BRUCEDALE AVENUE,UPPER GAGE at BRUCEDALE,0,
43.23,0,2202,-79.83,2745,,,UP/GAGE AV & BRUCEDALE AVENUE,UPPER GAGE at BRUCEDALE,0,
43.23,0,2077,-79.83,2746,,,UP/GAGE AV & CONCESSION STREET,UPPER GAGE at CONCESSION,0,
43.23,0,2046,-79.83,2747,,,UP/GAGE AV & CONCESSION STREET,UPPER GAGE at CONCESSION,0,
43.23,0,2046,-79.83,2748,,,UP/GAGE AV & CROCKETT STREET,UPPER GAGE at CROCKETT,0,
43.23,0,2077,-79.83,2749,,,UP/GAGE AV & CROCKETT STREET OPP. (@# 381),UPPER GAGE opposite CROCKETT,0,
43.22,0,2178,-79.84,2750,,,UP/GAGE AV & DALLAS AVENUE,UPPER GAGE at DALLAS,0,
43.21,0,2180,-79.84,2751,,,UP/GAGE AV & EDWINA PLACE,UPPER GAGE at EDWINA,0,
43.22,0,2176,-79.83,2752,,,UP/GAGE AV & FENNELL AVENUE,UPPER GAGE at FENNELL,0,
43.22,0,2201,-79.83,2753,,,UP/GAGE AV & FENNELL AVENUE,UPPER GAGE at FENNELL,0,
43.19,0,2193,-79.85,2754,,,UPPER GAGE AV & GOLDENGATE AV,UPPER GAGE at GOLDENGATE,0,
43.21,0,2196,-79.84,2755,,,UP/GAGE AV & LINC (Off-Ramp),UPPER GAGE at LINC NORTH,0,
43.21,0,2181,-79.84,2756,,,UP/GAGE AV & LOCKTON CRESCENT,UPPER GAGE at LOCKTON,0,
43.20,0,2183,-79.84,2757,,,UP/GAGE AV & LOCONDER DRIVE,UPPER GAGE at LOCONDER,0,
43.20,0,2195,-79.84,2758,,,UP/GAGE AV & LOCONDER DRIVE,UPPER GAGE at LOCONDER,0,
43.22,0,2177,-79.84,2759,,,UP/GAGE AV & MACASSA AVENUE,UPPER GAGE at MACASSA,0,
43.21,0,2179,-79.84,2760,,,UP/GAGE AV & MOHAWK ROAD,UPPER GAGE at MOHAWK,0,
43.21,0,2198,-79.84,2761,,,UP/GAGE AV & MOHAWK ROAD,UPPER GAGE at MOHAWK,0,
43.21,0,2198,-79.84,2762,,,UP/GAGE AV & MUIR AVENUE,UPPER GAGE at MUIR,0,
43.21,0,2180,-79.84,2763,,,UP/GAGE AV & MUIR AVENUE OPP (@# 932),UPPER GAGE opposite MUIR,0,
43.22,0,2200,-79.84,2764,,,UP/GAGE AV & NINTH AVE,UPPER GAGE at NINTH,0,
43.22,0,2199,-79.84,2765,,,UP/GAGE AV & PEMBERTON AVENUE,UPPER GAGE at PEMBERTON,0,
43.20,0,2195,-79.84,2766,,,UP/GAGE AV & QUAIL DR (#1310),UPPER GAGE at QUAIL,0,
43.23,0,2175,-79.83,2767,,,UP/GAGE AV & QUEENSDALE AVENUE,UPPER GAGE at QUEENSDALE,0,
43.23,0,2203,-79.83,2768,,,UP/GAGE AV & QUEENSDALE AVENUE,UPPER GAGE at QUEENSDALE,0,
43.20,0,2184,-79.84,2769,,,UP/GAGE AV & ROBERTSFIELD DRIVE,UPPER GAGE at ROBERTSFIELD,0,
43.19,0,2193,-79.85,2770,,,UP/GAGE AV & ROYAL VISTA DRIVE,UPPER GAGE at ROYALVISTA,0,
43.19,0,2186,-79.85,2771,,,UPPER GAGE AV & ROYALVISTA DR,UPPER GAGE at ROYALVISTA,0,
43.19,0,2186,-79.85,2772,,,UP/GAGE AV & RYMAL ROAD,UPPER GAGE at RYMAL,0,
43.19,0,2193,-79.85,2773,,,UP/GAGE AV & RYMAL ROAD,UPPER GAGE at RYMAL,0,
43.22,0,2177,-79.84,2774,,,UP/GAGE AV & SEVENTH AVENUE,UPPER GAGE at SEVENTH,0,
43.22,0,2201,-79.83,2775,,,UP/GAGE AV & SEVENTH AVENUE,UPPER GAGE at SEVENTH,0,
43.19,0,2186,-79.85,2776,,,UP/GAGE AV & SINENA AVENUE,UPPER GAGE at SINENA,0,
43.20,0,2184,-79.85,2777,,,UP/GAGE AV & STONE CHURCH ROAD,UPPER GAGE at STONE CHURCH,0,
43.20,0,2194,-79.85,2778,,,UP/GAGE AV & STONE CHURCH ROAD,UPPER GAGE at STONE CHURCH,0,
43.21,0,2197,-79.84,2779,,,UPPER GAGE AV & THORLEY DR,UPPER GAGE at THORLEY,0,
43.22,0,2890,-79.92,2781,,,UP/HORNING RD & ADIS AVENUE,UPPER HORNING at ADIS,0,
43.22,0,2889,-79.92,2782,,,UP/HORNING RD & AMALFI STREET,UPPER HORNING at AMALFI,0,
43.22,0,2866,-79.92,2783,,,UPPER HORNING RD & AMALFI ST OPP.,UPPER HORNING opposite AMALFI,0,
43.22,0,2865,-79.92,2784,,,UP/HORNING RD & ELENA COURT,UPPER HORNING at ELENA,0,
43.22,0,2889,-79.92,2785,,,UP/HORNING RD & GUILDWOOD DRIVE,UPPER HORNING at GUILDWOOD,0,
43.22,0,2890,-79.92,2786,,,UP/HORNING RD & MONTEAGLE COURT,UPPER HORNING at MONTEAGLE,0,
43.22,0,2866,-79.92,2787,,,UP/HORNING RD & NELLIDA CRESCENT (NORTH LEG),UPPER HORNING at NELLIDA NORTH,0,
43.22,0,2866,-79.92,2788,,,UP/HORNING RD & NELLIDA CRESCENT (SOUTH LEG),UPPER HORNING at NELLIDA SOUTH,0,
43.21,0,2285,-79.88,2789,,,UP/JAMES ST & SOUTH OF LINC,UPPER JAMES SOUTH OF LINC,0,
43.20,0,2297,-79.89,2790,,,UP/JAMES ST & #1405 S STONE CHURCH RD.,At 1405 UPPER JAMES,0,
43.20,0,2287,-79.89,2791,,,UP/JAMES ST & #1416 S STONE CHURCH RD.,At 1416 UPPER JAMES,0,
43.19,0,2293,-79.89,2792,,,UP/JAMES ST & ALDERLEA AVENUE,UPPER JAMES at ALDERLEA,0,
43.19,0,2290,-79.89,2793,,,UP/JAMES ST & ALDERLEA AVENUE OPP.,UPPER JAMES opposite ALDERLEA,0,
43.22,0,2276,-79.88,2794,,,UP/JAMES ST & JAMESTON AV,UPPER JAMES at JAMESTON,0,
43.22,0,2307,-79.88,2795,,,UP/JAMES ST & ALDRIDGE STREET OPP. (@# 1039),UPPER JAMES opposite ALDRIDGE,0,
43.21,0,2285,-79.88,2796,,,UP/JAMES ST & BLOSSOM LANE,UPPER JAMES at BLOSSOM,0,
43.23,0,2313,-79.87,2797,,,UPPER JAMES ST & BRUCEDALE AV E,UPPER JAMES at BRUCEDALE,0,
43.23,0,2270,-79.87,2798,,,UPPER JAMES ST & BRUCEDALE AV E,UPPER JAMES at BRUCEDALE,0,
43.21,0,2299,-79.88,2799,,,UP/JAMES ST & CHIPMAN AVENUE (@ # 1269),UPPER JAMES at CHIPMAN,0,
43.19,0,2290,-79.89,2800,,,UP/JAMES ST & CHRISTOPHER DRIVE,UPPER JAMES at CHRISTOPHER,0,
43.19,0,2293,-79.89,2801,,,UP/JAMES ST & CHRISTOPHER DRIVE OPP.,UPPER JAMES opposite CHRISTOPHER,0,
43.20,0,2295,-79.89,2802,,,UP/JAMES ST & DELTA DRIVE,UPPER JAMES at DELTA,0,
43.20,0,2287,-79.89,2803,,,UP/JAMES ST & DELTA DRIVE OPP.,UPPER JAMES opposite DELTA,0,
43.24,0,2269,-79.87,2804,,,UP/JAMES ST & DUFF STREET,UPPER JAMES at DUFF,0,
43.23,0,2271,-79.87,2805,,,UPPER JAMES ST & FENNELL AV E,UPPER JAMES at FENNELL,0,
43.23,0,2312,-79.87,2806,,,UPPER JAMES ST & FENNELL AV E,UPPER JAMES at FENNELL,0,
43.22,0,2307,-79.88,2807,,,UP/JAMES ST & HESTER STREET,UPPER JAMES at HESTER,0,
43.22,0,2276,-79.88,2808,,,UP/JAMES ST & HESTER STREET OPP.,UPPER JAMES opposite HESTER,0,
43.22,0,2276,-79.88,2809,,,UP/JAMES ST & ALDRIDGE ST,UPPER JAMES at ALDRIDGE,0,
43.22,0,2307,-79.88,2810,,,UP/JAMES ST & JAMESTON AVENUE OPP.,UPPER JAMES opposite JAMESTON,0,
43.20,0,2289,-79.89,2811,,,UP/JAMES ST & KENNEDY AVE.,UPPER JAMES at KENNEDY,0,
43.22,0,2300,-79.88,2812,,,UP/JAMES ST & LINC (off ramp),UPPER JAMES NORTH OF LINC,0,
43.21,0,2300,-79.88,2813,,,UP/JAMES ST & SOUTH OF LINC,UPPER JAMES SOUTH OF LINC,0,
43.22,0,2275,-79.88,2814,,,UP/JAMES ST & LOTUS AVENUE,UPPER JAMES at LOTUS,0,
43.22,0,2308,-79.88,2815,,,UP/JAMES ST & LOTUS AVENUE OPP.,UPPER JAMES opposite LOTUS,0,
43.19,0,2289,-79.89,2816,,,UP/JAMES ST & MALTON DRIVE,UPPER JAMES at MALTON,0,
43.20,0,2294,-79.89,2817,,,UP/JAMES ST & MALTON DRIVE OPP. (@# 1699),UPPER JAMES opposite MALTON,0,
43.23,0,2310,-79.87,2818,,,UP/JAMES ST & MCELROY ROAD,UPPER JAMES at MCELROY,0,
43.23,0,2272,-79.87,2819,,,UP/JAMES ST & MCELROY ROAD,UPPER JAMES at MCELROY,0,
43.22,0,2308,-79.88,2820,,,UPPER JAMES ST & MOHAWK RD E,UPPER JAMES at MOHAWK,0,
43.22,0,2275,-79.88,2821,,,UPPER JAMES ST & MOHAWK RD E,UPPER JAMES at MOHAWK,0,
43.24,0,2313,-79.87,2824,,,UP/JAMES ST & QUEENSDALE AVENUE,UPPER JAMES at QUEENSDALE,0,
43.24,0,2270,-79.87,2825,,,UP/JAMES ST & QUEENSDALE AVENUE,UPPER JAMES at QUEENSDALE,0,
43.20,0,2297,-79.89,2826,,,UP/JAMES ST & REGINA DR. OPP.,UPPER JAMES at REGINA,0,
43.20,0,2287,-79.89,2827,,,UP/JAMES ST & REGINA DRIVE,UPPER JAMES at REGINA,0,
43.23,0,2274,-79.88,2828,,,UP/JAMES ST & RICHWILL ROAD,UPPER JAMES at RICHWILL,0,
43.23,0,2309,-79.88,2829,,,UP/JAMES ST & RICHWILL ROAD OPP. (OP. # 734),UPPER JAMES opposite RICHWILL,0,
43.20,0,2295,-79.89,2830,,,UP/JAMES ST & RYMAL ROAD,UPPER JAMES at RYMAL,0,
43.20,0,2288,-79.89,2831,,,UP/JAMES ST & RYMAL ROAD,UPPER JAMES at RYMAL,0,
43.23,0,2309,-79.88,2832,,,UP/JAMES ST & SOUTH BEND ROAD,UPPER JAMES at SOUTH BEND,0,
43.23,0,2273,-79.88,2833,,,UP/JAMES ST & SOUTH BEND ROAD,UPPER JAMES at SOUTH BEND,0,
43.21,0,2298,-79.88,2834,,,UPPER JAMES ST & STONE CHURCH RD E,UPPER JAMES at STONE CHURCH,0,
43.21,0,2286,-79.88,2835,,,UPPER JAMES ST & STONE CHURCH RD E,UPPER JAMES at STONE CHURCH,0,
43.19,0,2293,-79.89,2836,,,UP/JAMES ST & TWENTY ROAD,UPPER JAMES at TWENTY,0,
43.19,0,2290,-79.89,2837,,,UP/JAMES ST & TWENTY ROAD,UPPER JAMES at TWENTY,0,
43.23,0,2272,-79.87,2838,,,UP/JAMES ST & WEMBLEY ROAD,UPPER JAMES at WEMBLEY,0,
43.23,0,2311,-79.87,2839,,,UP/JAMES ST & WEMBLEY ROAD OPP. (OP. # 672),UPPER JAMES opposite WEMBLEY,0,
43.21,0,2059,-79.82,2840,,,UP/KENILWORTH AV & BROKER DRIVE,UPPER KENILWORTH at BROKER,0,
43.21,0,2068,-79.82,2841,,,UP/KENILWORTH AV & BROKER DRIVE,UPPER KENILWORTH at BROKER,0,
43.21,0,2062,-79.82,2842,,,UP/KENILWORTH AV & CARSON DRIVE,UPPER KENILWORTH at CARSON,0,
43.21,0,2133,-79.82,2843,,,UP/KENILWORTH AV & CARSON DRIVE OPP.,UPPER KENILWORTH opposite CARSON,0,
43.21,0,2059,-79.82,2844,,,UP/KENILWORTH AV & ELLIOTT AVENUE,UPPER KENILWORTH at ELLIOTT,0,
43.21,0,2067,-79.82,2845,,,UP/KENILWORTH AV & ELLIOTT AVENUE OPP. (@# 451),UPPER KENILWORTH opposite ELLIOTT,0,
43.22,0,2058,-79.81,2846,,,UP/KENILWORTH AV & FENNELL AVENUE,UPPER KENILWORTH at FENNELL,0,
43.22,0,2068,-79.81,2847,,,UP/KENILWORTH AV & FENNELL AVENUE,UPPER KENILWORTH at FENNELL,0,
43.21,0,2062,-79.82,2848,,,UP/KENILWORTH AV & LANDRON AVE. (#700),UPPER KENILWORTH at LANDRON,0,
43.21,0,2133,-79.82,2849,,,UP/KENILWORTH AV & LANDRON AVENUE OPP.,UPPER KENILWORTH opposite LANDRON,0,
43.22,0,2068,-79.81,2850,,,UP/KENILWORTH AV & MARSHALL AVENUE,UPPER KENILWORTH at MARSHALL,0,
43.22,0,2058,-79.81,2851,,,UP/KENILWORTH AV & MARSHALL AVENUE OPP. (@# 364),UPPER KENILWORTH opposite MARSHALL,0,
43.21,0,2061,-79.82,2852,,,UP/KENILWORTH AV & MOHAWK ROAD,UPPER KENILWORTH at MOHAWK,0,
43.21,0,2066,-79.82,2853,,,UP/KENILWORTH AV & MOHAWK ROAD,UPPER KENILWORTH at MOHAWK,0,
43.20,0,2063,-79.82,2854,,,UP/KENILWORTH AV & RACALMUTO STREET (@# 790),UPPER KENILWORTH at RACALMUTO,0,
43.20,0,2065,-79.82,2855,,,UP/KENILWORTH AV & RACALMUTO ST (OPP) (OP. # 810,UPPER KENILWORTH opposite RACALMUTO,0,
43.21,0,2059,-79.82,2856,,,UP/KENILWORTH AV & TOBY CRESCENT,UPPER KENILWORTH at TOBY,0,
43.21,0,2067,-79.82,2857,,,UP/KENILWORTH AV & TOBY CRESCENT OPP. (@# 505),UPPER KENILWORTH opposite TOBY,0,
43.20,0,2063,-79.82,2858,,,UP/KENILWORTH AV & TOWN MANSION DRIVE,UPPER KENILWORTH at TOWNMANSION,0,
43.20,0,2065,-79.82,2859,,,UP/KENILWORTH AV & TOWNMANSION DRIVE OPP.,UPPER KENILWORTH opposite TOWNMANSION,0,
43.20,0,2156,-79.83,2860,,,UP/OTTAWA ST & #1190 OPP. ("QUINDALE GARDENS",Opposite 1190 UPPER OTTAWA,0,
43.19,0,2149,-79.84,2861,,,UP/OTTAWA ST & #1527 N RYMAL RD. (OP.# 1526),At 1527 UPPER OTTAWA,0,
43.22,0,2073,-79.82,2862,,,UP/OTTAWA ST & #397 S QUEENSDALE AVE.,UPPER OTTAWA at QUEENSDALE,0,
43.22,0,2162,-79.83,2863,,,UP/OTTAWA ST & #633 N BROKER AVE.,At 633 UPPER OTTAWA,0,
43.22,0,2108,-79.83,2864,,,UP/OTTAWA ST & #638 S FENNELL AVE.,At 638 UPPER OTTAWA,0,
43.22,0,2108,-79.83,2865,,,UP/OTTAWA ST & 10TH AVENUE (@#722),UPPER OTTAWA at TENTH,0,
43.22,0,2108,-79.83,2866,,,UP/OTTAWA ST & 9TH AVENUE,UPPER OTTAWA at NINTH,0,
43.21,0,2158,-79.83,2867,,,UP/OTTAWA ST & ANSON AVENUE (@#871),UPPER OTTAWA at ANSON,0,
43.21,0,2111,-79.83,2868,,,UP/OTTAWA ST & BEACONSFIELD DRIVE,UPPER OTTAWA at BEACONSFIELD,0,
43.21,0,2113,-79.83,2869,,,UP/OTTAWA ST & BOWDEN AVENUE,UPPER OTTAWA at BOWDEN,0,
43.22,0,2161,-79.83,2870,,,UP/OTTAWA ST & BROKER DRIVE,UPPER OTTAWA at BROKER,0,
43.22,0,2050,-79.82,2871,,,UP/OTTAWA ST & BRUCEDALE AVENUE,UPPER OTTAWA at BRUCEDALE,0,
43.22,0,2072,-79.82,2872,,,UP/OTTAWA ST & BRUCEDALE AVENUE,UPPER OTTAWA at BRUCEDALE,0,
43.20,0,2157,-79.83,2873,,,UP/OTTAWA ST & CARSON DRIVE,UPPER OTTAWA at CARSON,0,
43.21,0,2161,-79.83,2874,,,UP/OTTAWA ST & EDENHILL AVENUE OPP (@#769),UPPER OTTAWA opposite EDENHILL,0,
43.23,0,2808,-79.82,2876,,,UP/OTTAWA ST & EVERTON PLACE,UPPER OTTAWA at EVERTON,0,
43.22,0,2051,-79.82,2877,,,UP/OTTAWA ST & FENNELL AVENUE,UPPER OTTAWA at FENNELL,0,
43.22,0,2072,-79.82,2878,,,UP/OTTAWA ST & FENNELL AVENUE,UPPER OTTAWA at FENNELL,0,
43.21,0,2111,-79.83,2879,,,UP/OTTAWA ST & LARCH ST,UPPER OTTAWA at LARCH,0,
43.21,0,2157,-79.83,2880,,,UP/OTTAWA ST & LARCH STREET,UPPER OTTAWA at LARCH,0,
43.20,0,2113,-79.83,2881,,,UP/OTTAWA ST & LIMERIDGE ROAD,UPPER OTTAWA at LIMERIDGE,0,
43.20,0,2156,-79.83,2882,,,UP/OTTAWA ST & LIMERIDGE ROAD,UPPER OTTAWA at LIMERIDGE,0,
43.21,0,2110,-79.83,2883,,,UP/OTTAWA ST & MOHAWK ROAD,UPPER OTTAWA at MOHAWK,0,
43.21,0,2160,-79.83,2884,,,UP/OTTAWA ST & MOHAWK ROAD,UPPER OTTAWA at MOHAWK,0,
43.20,0,2115,-79.83,2885,,,UP/OTTAWA ST & # 1190 N REDBURY ST.,At 1190 UPPER OTTAWA,0,
43.20,0,2115,-79.83,2886,,,UP/OTTAWA ST & QUEENSBURY DRIVE,UPPER OTTAWA at QUEENSBURY,0,
43.20,0,2155,-79.83,2887,,,UP/OTTAWA ST & QUEENSBURY DRIVE OPP,UPPER OTTAWA opposite QUEENSBURY,0,
43.23,0,2808,-79.82,2888,,,UP/OTTAWA ST & QUEENSDALE AVENUE,UPPER OTTAWA at QUEENSDALE,0,
43.22,0,2168,-79.82,2889,,,UP/OTTAWA ST & QUEENSDALE AVENUE OPP. (@#385),UPPER OTTAWA opposite QUEENSDALE,0,
43.20,0,2115,-79.83,2890,,,UP/OTTAWA ST & REDBURY ST,UPPER OTTAWA at REDBURY,0,
43.20,0,2155,-79.83,2891,,,UPPER OTTAWA ST & REDBURY ST,UPPER OTTAWA opposite REDBURY,0,
43.21,0,2111,-79.83,2892,,,UP/OTTAWA ST & RENO AVENUE,UPPER OTTAWA at RENO,0,
43.19,0,2149,-79.84,2893,,,UPPER OTTAWA ST & RYMAL RD E,UPPER OTTAWA at RYMAL,0,
43.22,0,2161,-79.83,2894,,,UP/OTTAWA ST & SANDALWOOD AVENUE,UPPER OTTAWA at SANDALWOOD,0,
43.19,0,2116,-79.84,2896,,,UP/OTTAWA ST & STONE CHURCH ROAD,UPPER OTTAWA at STONE CHURCH,0,
43.19,0,2154,-79.84,2897,,,UP/OTTAWA ST & STONE CHURCH ROAD,UPPER OTTAWA at STONE CHURCH,0,
43.23,0,2168,-79.82,2898,,,UP/OTTAWA ST & SUNNINGHILL AV OPP. (@#333),UPPER OTTAWA opposite SUNNING HILL,0,
43.19,0,2117,-79.84,2899,,,UP/OTTAWA ST & TUNBRIDGE CRESCENT,UPPER OTTAWA at TUNBRIDGE,0,
43.19,0,2149,-79.84,2900,,,UP/OTTAWA ST & TUNBRIDGE CRES OPP.(@#1423),UPPER OTTAWA opposite TUNBRIDGE,0,
43.19,0,2149,-79.84,2901,,,UP/OTTAWA ST & UNSWORTH DRIVE,UPPER OTTAWA at UNSWORTH,0,
43.23,0,2873,-79.91,2902,,,UP/PARADISE RD & #372 OPP (Opp. SANDRINGHAM AVE,UPPER PARADISE opposite SANDRINGHAM,0,
43.22,0,2884,-79.91,2903,,,UP/PARADISE RD & #632 (Opp. DALCAR CRT),UPPER PARADISE opposite DALCAR,0,
43.22,0,2886,-79.91,2904,,,UP/PARADISE RD & #788 (Opp. WINGFIELD PL.),UPPER PARADISE opposite WINGFIELD,0,
43.24,0,2880,-79.90,2905,,,UP/PARADISE RD & ANGELA AVENUE,UPPER PARADISE at ANGELA,0,
43.24,0,2875,-79.90,2906,,,UP/PARADISE RD & ANGELA AVENUE OPP. (@#99),UPPER PARADISE opposite ANGELA,0,
43.23,0,2881,-79.90,2907,,,UP/PARADISE RD & BENDAMERE AVENUE,UPPER PARADISE at BENDAMERE,0,
43.23,0,2874,-79.90,2908,,,UP/PARADISE RD & BENDAMERE AVENUE,UPPER PARADISE at BENDAMERE,0,
43.22,0,2870,-79.91,2909,,,UP/PARADISE RD & DALCAR COURT (@#625),UPPER PARADISE at DALCAR,0,
43.21,0,2863,-79.92,2910,,,UP/PARADISE RD & MEADOWBANK DRIVE OPP.,UPPER PARADISE opposite MEADOWBANK,0,
43.21,0,2893,-79.92,2911,,,UP/PARADISE RD & MEADOWBANK DRIVE,UPPER PARADISE at MEADOWBANK,0,
43.23,0,2881,-79.90,2912,,,UP/PARADISE RD & ELMWOOD AVENUE,UPPER PARADISE at ELMWOOD,0,
43.23,0,2874,-79.90,2913,,,UP/PARADISE RD & ELMWOOD AVENUE,UPPER PARADISE at ELMWOOD,0,
43.22,0,2869,-79.91,2914,,,UP/PARADISE RD & GEMINI DRIVE,UPPER PARADISE at GEMINI,0,
43.22,0,2886,-79.91,2915,,,UP/PARADISE RD & GEMINI DRIVE OPP.,UPPER PARADISE opposite GEMINI,0,
43.22,0,2870,-79.91,2916,,,UP/PARADISE RD & GREENSHIRE DRIVE,UPPER PARADISE at GREENSHIRE,0,
43.22,0,2884,-79.91,2917,,,UP/PARADISE RD & HADELAND AVENUE,UPPER PARADISE at HADELAND,0,
43.22,0,2871,-79.91,2918,,,UP/PARADISE RD & HADELAND AVENUE,UPPER PARADISE at HADELAND,0,
43.24,0,2880,-79.90,2919,,,UP/PARADISE RD & LESLIE AVENUE,UPPER PARADISE at LESLIE,0,
43.24,0,2874,-79.90,2920,,,UP/PARADISE RD & LESLIE AVENUE,UPPER PARADISE at LESLIE,0,
43.23,0,2871,-79.91,2921,,,UP/PARADISE RD & LUNNER AVENUE (@#535),UPPER PARADISE at LUNNER,0,
43.23,0,2883,-79.91,2922,,,UP/PARADISE RD & LUNNER AVENUE OPP.(@#517),UPPER PARADISE opposite LUNNER,0,
43.23,0,2883,-79.91,2923,,,UP/PARADISE RD & MOHAWK ROAD,UPPER PARADISE at MOHAWK,0,
43.23,0,2872,-79.91,2924,,,UP/PARADISE RD & MOHAWK ROAD,UPPER PARADISE at MOHAWK,0,
43.20,0,2893,-79.92,2925,,,UP/PARADISE RD & RYMAL ROAD,UPPER PARADISE at RYMAL,0,
43.21,0,2863,-79.92,2926,,,UP/PARADISE RD & RYMAL ROAD,UPPER PARADISE at RYMAL,0,
43.23,0,2882,-79.91,2927,,,UP/PARADISE RD & SANATORIUM ROAD,UPPER PARADISE at SANATORIUM,0,
43.23,0,2873,-79.91,2928,,,UP/PARADISE RD & SANATORIUM ROAD,UPPER PARADISE at SANATORIUM,0,
43.23,0,2882,-79.91,2929,,,UP/PARADISE RD & SANDRINGHAM AVENUE,UPPER PARADISE at SANDRINGHAM,0,
43.24,0,2880,-79.90,2930,,,UP/PARADISE RD & SCENIC DRIVE,UPPER PARADISE at SCENIC,0,
43.24,0,2875,-79.90,2931,,,UP/PARADISE RD & SCENIC DRIVE,UPPER PARADISE at SCENIC,0,
43.21,0,2863,-79.91,2932,,,UP/PARADISE RD & SKYVIEW DRIVE,UPPER PARADISE at SKYVIEW,0,
43.21,0,2891,-79.91,2933,,,UP/PARADISE RD & SKYVIEW DRIVE OPP. (@#974),UPPER PARADISE opposite SKYVIEW,0,
43.21,0,2863,-79.92,2934,,,UP/PARADISE RD & ST THOMAS MORE H. S. (OP.#1024,UPPER PARADISE at ST. THOMAS MORE,0,
43.21,0,2892,-79.92,2935,,,UP/PARADISE RD & ST THOMAS MORE H.S. OP (@#1046,UPPER PARADISE at RICHVIEW,0,
43.21,0,2887,-79.91,2936,,,UP/PARADISE RD & STONE CHURCH ROAD,UPPER PARADISE at STONE CHURCH,0,
43.21,0,2864,-79.91,2937,,,UP/PARADISE RD & STONE CHURCH ROAD,UPPER PARADISE at STONE CHURCH,0,
43.22,0,2885,-79.91,2938,,,UP/PARADISE RD & TREVI ROAD,UPPER PARADISE at TREVI,0,
43.22,0,2869,-79.91,2939,,,UP/PARADISE RD & WINGFIELD PLACE,UPPER PARADISE at WINGFIELD,0,
43.19,0,2216,-79.86,2940,,,UPPER SHERMAN AV & ACADIA DR,UPPER SHERMAN at ACADIA,0,
43.19,0,2217,-79.86,2941,,,UP/SHERMAN AV & ACADIA DRIVE OPP.,UPPER SHERMAN opposite ACADIA,0,
43.20,0,2218,-79.85,2942,,,UP/SHERMAN AV & ASTONWWOD DRIVE (@#1317),UPPER SHERMAN at ASTONWOOD,0,
43.20,0,2218,-79.85,2943,,,UP/SHERMAN AV & ATHERLEY DRIVE,UPPER SHERMAN at ATHERLEY,0,
43.21,0,2221,-79.85,2944,,,UP/SHERMAN AV & BERKO AVENUE,UPPER SHERMAN at BERKO,0,
43.23,0,2206,-79.84,2945,,,UP/SHERMAN AV & BRUCEDALE AVENUE,UPPER SHERMAN at BRUCEDALE,0,
43.23,0,2226,-79.84,2946,,,UP/SHERMAN AV & BRUCEDALE AVENUE,UPPER SHERMAN at BRUCEDALE,0,
43.22,0,2208,-79.85,2947,,,UP/SHERMAN AV & BURKHOLDER DRIVE,UPPER SHERMAN at BURKHOLDER,0,
43.22,0,2224,-79.85,2948,,,UP/SHERMAN AV & CAMEO AVENUE (@#795),UPPER SHERMAN at CAMEO,0,
43.23,0,2204,-79.84,2949,,,UP/SHERMAN AV & CROCKETT STREET,UPPER SHERMAN at CROCKETT,0,
43.23,0,2227,-79.84,2950,,,UP/SHERMAN AV & CROCKETT STREET,UPPER SHERMAN at CROCKETT,0,
43.20,0,2228,-79.86,2951,,,UP/SHERMAN AV & DALIA AVENUE OPP (@#1478),UPPER SHERMAN opposite DALIA,0,
43.20,0,2217,-79.86,2952,,,UP/SHERMAN AV & DALIA DRIVE (@# 1457),UPPER SHERMAN at DALIA,0,
43.21,0,2210,-79.85,2953,,,UP/SHERMAN AV & DORVAL STREET,UPPER SHERMAN at DORVAL,0,
43.23,0,2207,-79.84,2954,,,UP/SHERMAN AV & FENNELL AVENUE,UPPER SHERMAN at FENNELL,0,
43.22,0,2225,-79.84,2955,,,UP/SHERMAN AV & FENNELL AVENUE,UPPER SHERMAN at FENNELL,0,
43.22,0,2224,-79.85,2956,,,UP/SHERMAN AV & FRANKLIN AVENUE OPP.(@#723),AT 727 UPPER SHERMAN,0,
43.22,0,2208,-79.85,2957,,,UP/SHERMAN AV & FRANKLIN ROAD,UPPER SHERMAN at FRANKLIN,0,
43.22,0,2208,-79.84,2958,,,UP/SHERMAN AV & HALAM AVENUE,UPPER SHERMAN at HALAM,0,
43.21,0,2210,-79.85,2959,,,UP/SHERMAN AV & JASMINE STREET,UPPER SHERMAN at JASMINE,0,
43.21,0,2222,-79.85,2960,,,UP/SHERMAN AV & JEANETTE STREET,UPPER SHERMAN at JEANETTE,0,
43.21,0,2220,-79.85,2961,,,UP/SHERMAN AV & LAPP STREET,UPPER SHERMAN at LAPP,0,
43.21,0,2211,-79.85,2962,,,UP/SHERMAN AV & LAPP STREET OPP. (@#1054),UPPER SHERMAN opposite LAPP,0,
43.21,0,2212,-79.85,2963,,,UPPER SHERMAN AV & LIMERIDGE RD E,UPPER SHERMAN at LIMERIDGE,0,
43.21,0,2220,-79.85,2964,,,UP/SHERMAN AV & LIMERIDGE ROAD,UPPER SHERMAN at LIMERIDGE,0,
43.22,0,2224,-79.84,2965,,,UP/SHERMAN AV & MACASSA AVENUE,UPPER SHERMAN at MACASSA,0,
43.22,0,2208,-79.84,2966,,,UP/SHERMAN AV & MCKENZIE ROAD,UPPER SHERMAN at MACKENZIE,0,
43.22,0,2223,-79.85,2967,,,UP/SHERMAN AV & MOHAWK ROAD,UPPER SHERMAN at MOHAWK,0,
43.22,0,2209,-79.85,2968,,,UP/SHERMAN AV & MOHAWK ROAD,UPPER SHERMAN at MOHAWK,0,
43.23,0,2227,-79.84,2969,,,UP/SHERMAN AV & MUNN STREET,UPPER SHERMAN at MUNN,0,
43.23,0,2205,-79.84,2970,,,UP/SHERMAN AV & MUNN STREET OPP. (@#458),UPPER SHERMAN opposite MUNN,0,
43.20,0,2218,-79.85,2971,,,UP/SHERMAN AV & PRINCIP STREET,UPPER SHERMAN at PRINCIP,0,
43.23,0,2205,-79.84,2972,,,UP/SHERMAN AV & QUEENSDALE AVENUE,UPPER SHERMAN at QUEENSDALE,0,
43.23,0,2226,-79.84,2973,,,UP/SHERMAN AV & QUEENSDALE AVENUE,UPPER SHERMAN at QUEENSDALE,0,
43.20,0,2214,-79.85,2974,,,UP/SHERMAN AV & PRINCIP ST OPP.,UPPER SHERMAN opposite PRINCIP,0,
43.20,0,2214,-79.85,2975,,,UP/SHERMAN AV & ROWNTREE AVENUE,UPPER SHERMAN at ROWNTREE,0,
43.20,0,2214,-79.85,2976,,,UP/SHERMAN AV & RUBY STREET,UPPER SHERMAN at RUBY,0,
43.19,0,2216,-79.86,2977,,,UP/SHERMAN AV & RYMAL ROAD,UPPER SHERMAN at RYMAL,0,
43.21,0,2211,-79.85,2978,,,UP/SHERMAN AV & SOUTHAMPTON DRIVE,UPPER SHERMAN at SOUTHAMPTON,0,
43.20,0,2217,-79.85,2979,,,UP/SHERMAN AV & STONE CHURCH ROAD,UPPER SHERMAN at STONE CHURCH,0,
43.20,0,2215,-79.85,2980,,,UP/SHERMAN AV & STONE CHURCH ROAD,UPPER SHERMAN at STONE CHURCH,0,
43.20,0,2215,-79.86,2981,,,UP/SHERMAN AV & BEAVERTON DRIVE,UPPER SHERMAN at BEAVERTON,0,
43.19,0,2219,-79.86,2982,,,UP/SHERMAN AV & RYMAL ROAD,UPPER SHERMAN at RYMAL,0,
43.22,0,2261,-79.87,2983,,,UP/WELLINGTON ST & #1069 S JAY ST.,At 1069 UPPER WELLINGTON,0,
43.22,0,2253,-79.87,2984,,,UP/WELLINGTON ST & #1079 (OPP.) & N BRYNA AVE.,Opposite 1079 UPPER WELLINGTON,0,
43.21,0,2256,-79.87,2985,,,UP/WELLINGTON ST & #1332 S TOWERCREST DR.,At 1332 UPPER WELLINGTON,0,
43.21,0,2258,-79.87,2986,,,UP/WELLINGTON ST & #1335 S TOWERCREST DR.,UPPER WELLINGTON opposite DESOTO,0,
43.21,0,2256,-79.87,2987,,,UPPER WELLINGTON ST & DESOTO DR,UPPER WELLINGTON at DESOTO,0,
43.21,0,2258,-79.87,2988,,,UP/WELLINGTON ST & #1394 N STONE CHURCH RD.,At 1394 UPPER WELLINGTON,0,
43.22,0,2261,-79.87,2990,,,UP/WELLINGTON ST & BOBOLINK ROAD,UPPER WELLINGTON at BOBOLINK,0,
43.20,0,2789,-79.88,2991,,,UP/WELLINGTON ST & BRIGADE DRIVE,UPPER WELLINGTON at BRIGADE,0,
43.23,0,2672,-79.86,2992,,,UP/WELLINGTON ST & BRUCEDALE AVENUE,UPPER WELLINGTON at BRUCEDALE,0,
43.23,0,2248,-79.86,2993,,,UPPER WELLINGTON ST & BRUCEDALE AV E,UPPER WELLINGTON at BRUCEDALE,0,
43.21,0,2255,-79.87,2994,,,UP/WELLINGTON ST & BRYNA AVENUE,UPPER WELLINGTON at BRYNA,0,
43.20,0,1365,-79.88,2995,,,UPPER WELLINGTON ST & BYNG ST,UPPER WELLINGTON at SAN FELICE,0,
43.20,0,2788,-79.88,2996,,,UPPER WELLINGTON ST & BYNG ST,UPPER WELLINGTON at BYNG,0,
43.20,0,2789,-79.88,2997,,,UP/WELLINGTON ST & COMO PLACE OPP.,UPPER WELLINGTON opposite COMO,0,
43.24,0,2098,-79.86,2998,,,UPPER WELLINGTON ST,UPPER WELLINGTON at CONCESSION,0,
43.24,0,2171,-79.86,2999,,,UP/WELLINGTON ST & CONCESSION STREET,UPPER WELLINGTON at CONCESSION,0,
43.20,0,1365,-79.88,3000,,,UP/WELLINGTON ST & DICENZO DRIVE,UPPER WELLINGTON at DICENZO,0,
43.20,0,1365,-79.88,3001,,,UP/WELLINGTON ST & DRAGOON DRIVE,UPPER WELLINGTON opposite DRAGOON,0,
43.23,0,2249,-79.86,3002,,,UP/WELLINGTON ST & FENNELL AVENUE,UPPER WELLINGTON at FENNELL,0,
43.23,0,2266,-79.86,3003,,,UP/WELLINGTON ST & FENNELL AVENUE,UPPER WELLINGTON at FENNELL,0,
43.22,0,2252,-79.87,3004,,,UP/WELLINGTON ST & HESTER STREET,UPPER WELLINGTON at HESTER,0,
43.23,0,2265,-79.86,3005,,,UPPER WELLINGTON ST & HOWE AV,UPPER WELLINGTON at HOWE,0,
43.23,0,2250,-79.86,3006,,,UPPER WELLINGTON ST & HOWE AV,UPPER WELLINGTON opposite HOWE,0,
43.24,0,2213,-79.86,3007,,,UP/WELLINGTON ST & INVERNESS AVENUE,UPPER WELLINGTON at INVERNESS,0,
43.21,0,2260,-79.87,3008,,,UP/WELLINGTON ST & JAY STREET,UPPER WELLINGTON at JAY,0,
43.21,0,2259,-79.87,3009,,,UP/WELLINGTON ST & LIMERIDGE ROAD,UPPER WELLINGTON at LIMERIDGE,0,
43.21,0,2255,-79.87,3010,,,UP/WELLINGTON ST & LIMERIDGE ROAD,UPPER WELLINGTON at LIMERIDGE,0,
43.22,0,2252,-79.87,3011,,,UP/WELLINGTON ST & LUSCOMBE STREET,UPPER WELLINGTON at LUSCOMBE,0,
43.23,0,2250,-79.87,3012,,,UP/WELLINGTON ST & MCELROY ROAD,UPPER WELLINGTON at MCELROY,0,
43.23,0,2264,-79.86,3013,,,UP/WELLINGTON ST & MCELROY ROAD OPP. (@#791),UPPER WELLINGTON opposite MCELROY,0,
43.22,0,2262,-79.87,3014,,,UP/WELLINGTON ST & MEADOWLARK DRIVE,UPPER WELLINGTON at MEADOWLARK,0,
43.22,0,2254,-79.87,3015,,,UP/WELLINGTON ST & MOHAWK ROAD,UPPER WELLINGTON at MOHAWK,0,
43.22,0,2262,-79.87,3016,,,UP/WELLINGTON ST & MOHAWK ROAD,UPPER WELLINGTON at MOHAWK,0,
43.22,0,2251,-79.87,3017,,,UP/WELLINGTON ST & NORRIE AVENUE,UPPER WELLINGTON at NORRIE,0,
43.22,0,2263,-79.87,3018,,,UP/WELLINGTON ST & NORRIE AVENUE OPP. (@#871),UPPER WELLINGTON opposite NORRIE,0,
43.20,0,1366,-79.88,3019,,,UP/WELLINGTON ST & RYMAL ROAD,UPPER WELLINGTON at RYMAL,0,
43.22,0,2251,-79.87,3021,,,UP/WELLINGTON ST & SOUTH BEND ROAD,UPPER WELLINGTON at SOUTH BEND,0,
43.22,0,2264,-79.87,3022,,,UP/WELLINGTON ST & SOUTH BEND ROAD,UPPER WELLINGTON at SOUTH BEND,0,
43.20,0,2137,-79.87,3023,,,UP/WELLINGTON ST & STONE CHURCH ROAD,UPPER WELLINGTON at STONE CHURCH,0,
43.20,0,2257,-79.87,3024,,,UP/WELLINGTON ST & STONE CHURCH ROAD,UPPER WELLINGTON at STONE CHURCH,0,
43.23,0,2099,-79.86,3025,,,UP/WELLINGTON ST & THAYER AVENUE OPP. (OP.# 523),UPPER WELLINGTON opposite THAYER,0,
43.23,0,2169,-79.86,3026,,,UPPER WELLINGTON ST & QUEENSDALE AV E,UPPER WELLINGTON at QUEENSDALE,0,
43.21,0,2256,-79.87,3027,,,UP/WELLINGTON ST & TOWERCREST DRIVE,UPPER WELLINGTON at TOWERCREST,0,
43.21,0,2258,-79.87,3028,,,UP/WELLINGTON ST & SIRENTE DRIVE OPP.,UPPER WELLINGTON at SIRENTE,0,
43.21,0,2238,-79.86,3029,,,UP/WENTWORTH ST & LINC,UPPER WENTWORTH at LINC,0,
43.22,0,2240,-79.86,3030,,,UP/WENTWORTH ST & #841 OPP. (N FIELDWAY DR.),At 841 UPPER WENTWORTH,0,
43.22,0,2236,-79.86,3031,,,UP/WENTWORTH ST & #848 N FIELDWAY DR.,At 848 UPPER WENTWORTH,0,
43.22,0,2236,-79.86,3032,,,UPPER WENTWORTH ST & FIELDWAY DR,UPPER WENTWORTH at EDUCATION,0,
43.22,0,2240,-79.86,3033,,,UPPER WENTWORTH ST & FIELDWAY DR,UPPER WENTWORTH opposite EDUCATION,0,
43.20,0,1369,-79.87,3034,,,UP/WENTWORTH ST & HUSSAR AV OPP.,UPPER WENTWORTH opposite HUSSAR,0,
43.23,0,2244,-79.85,3035,,,UP/WENTWORTH ST & BRUCEDALE AVENUE,UPPER WENTWORTH at BRUCEDALE,0,
43.23,0,2231,-79.85,3036,,,UP/WENTWORTH ST & BRUCEDALE AVENUE (OP. # 505),UPPER WENTWORTH at BRUCEDALE,0,
43.24,0,2247,-79.85,3037,,,UP/WENTWORTH ST & CONCESSION STREET,UPPER WENTWORTH at CONCESSION,0,
43.23,0,2246,-79.85,3038,,,UP/WENTWORTH ST & CROCKETT STREET (@#433),UPPER WENTWORTH at CROCKETT,0,
43.22,0,2242,-79.86,3039,,,UP/WENTWORTH ST & EAST 24TH STREET,UPPER WENTWORTH at EAST 24TH,0,
43.22,0,2234,-79.86,3040,,,UP/WENTWORTH ST & EAST 24TH ST OPP. (OP. # 711),UPPER WENTWORTH opposite EAST 24TH,0,
43.19,0,1369,-79.87,3041,,,UP/WENTWORTH ST & ELITE DRIVE,UPPER WENTWORTH at ELITE,0,
43.20,0,1369,-79.87,3042,,,UP/WENTWORTH ST & EMPEROR AVENUE,UPPER WENTWORTH at EMPEROR,0,
43.20,0,2136,-79.87,3043,,,UP/WENTWORTH ST & EMPEROR AVENUE,UPPER WENTWORTH at EMPEROR,0,
43.19,0,2136,-79.87,3044,,,UP/WENTWORTH ST & ESSLING AVENUE,UPPER WENTWORTH at ESSLING,0,
43.23,0,2232,-79.85,3045,,,UP/WENTWORTH ST & FENNELL AVENUE,UPPER WENTWORTH at FENNELL,0,
43.23,0,2243,-79.85,3046,,,UP/WENTWORTH ST & FENNELL AVENUE,UPPER WENTWORTH at FENNELL,0,
43.20,0,2136,-79.87,3047,,,UP/WENTWORTH ST & HUSSAR AVENUE,UPPER WENTWORTH at HUSSAR,0,
43.23,0,2229,-79.85,3048,,,UP/WENTWORTH ST & INVERNESS AVENUE (OP.# 457),UPPER WENTWORTH at INVERNESS,0,
43.21,0,4141,-79.86,3049,,,UPPER WENTWORTH ST & KINGFISHER DR,UPPER WENTWORTH opposite KINGFISHER,0,
43.21,0,2291,-79.86,3052,,,UP/WENTWORTH ST & LINC off Ramp (north of),UPPER WENTWORTH at LINC,0,
43.23,0,2243,-79.85,3053,,,UP/WENTWORTH ST & MACLENNAN STREET,UPPER WENTWORTH at MACLENNAN,0,
43.23,0,2232,-79.85,3054,,,UPPER WENTWORTH ST & MACLENNAN AV,UPPER WENTWORTH opposite MACLENNAN,0,
43.22,0,2235,-79.86,3055,,,UP/WENTWORTH ST & MOHAWK ROAD,UPPER WENTWORTH at MOHAWK,0,
43.22,0,2241,-79.86,3056,,,UPPER WENTWORTH ST & MOHAWK RD E,UPPER WENTWORTH at MOHAWK,0,
43.21,0,2134,-79.86,3057,,,UP/WENTWORTH ST & PESCARA AVENUE,UPPER WENTWORTH at PESCARA,0,
43.23,0,2230,-79.85,3058,,,UP/WENTWORTH ST & QUEENSDALE AVENUE,UPPER WENTWORTH at QUEENSDALE,0,
43.23,0,2245,-79.85,3059,,,UP/WENTWORTH ST & QUEENSDALE AVENUE,UPPER WENTWORTH at QUEENSDALE,0,
43.19,0,1368,-79.87,3060,,,UP/WENTWORTH ST & RYMAL ROAD,UPPER WENTWORTH at RYMAL,0,
43.19,0,2785,-79.87,3061,,,UP/WENTWORTH ST & RYMAL ROAD,UPPER WENTWORTH at RYMAL,0,
43.21,0,2291,-79.86,3062,,,UP/WENTWORTH ST & SOUTHPARK AVENUE,UPPER WENTWORTH at SOUTHPARK,0,
43.20,0,2291,-79.86,3063,,,UP/WENTWORTH ST & STONE CHURCH ROAD,UPPER WENTWORTH at STONE CHURCH,0,
43.20,0,2135,-79.86,3064,,,UP/WENTWORTH ST & STONE CHURCH ROAD,UPPER WENTWORTH at STONE CHURCH,0,
43.22,0,2233,-79.85,3065,,,UP/WENTWORTH ST & FRANKLIN RD OPP.,UPPER WENTWORTH opposite FRANKLIN,0,
43.22,0,2242,-79.85,3066,,,UP/WENTWORTH ST & VICKERS STREET OPP.(@# 667),UPPER WENTWORTH opposite VICKERS,0,
43.25,0,2382,-79.76,3068,,,VAN WAGNERS BEACH RD & ADVENTURE VILLAGE (Op. # 583),VAN WAGNERS at ADVENTURE VILLAGE,0,
43.25,0,2385,-79.76,3069,,,VAN WAGNERS BEACH RD & ADVENTURE VILLAGE OPP.(@# 583),VAN WAGNERS opposite ADVENTURE,0,
43.25,0,2382,-79.76,3070,,,VAN WAGNERS BEACH RD & BARANGAS CLUB (@#380),VAN WAGNERS BEACH at BARANGAS,0,
43.25,0,2385,-79.76,3071,,,VAN WAGNERS BEACH RD & BARANGAS CLUB OPP. (Op. #380),VAN WAGNERS opposite BARANGAS,0,
43.26,0,2384,-79.77,3072,,,VAN WAGNER'S BEACH RD & OPP. GO KART TRACK,LAKELAND LOOP,0,
43.25,0,2385,-79.76,3073,,,VAN WAGNERS BEACH RD & HUTCHES OPP. (Op.#280),VAN WAGNERS opposite HUTCHS,0,
43.25,0,2382,-79.76,3074,,,VAN WAGNER'S BEACH RD & HUTCHES (@#280),VAN WAGNERS BEACH at HUTCHS,0,
43.26,0,2385,-79.76,3075,,,VAN WAGNERS BEACH RD & LAKELAND POOL OPP. (Op.#180),VAN WAGNERS BEACH opposite LAKELAND,0,
43.26,0,2382,-79.76,3076,,,VAN WAGNERS BEACH RD & LAKELAND POOL (@#180),VAN WAGNERS BEACH at LAKELAND,0,
43.26,0,1458,-79.85,3078,,,VICTORIA AV N & FERRIE STREET,VICTORIA at FERRIE,0,
43.27,0,1455,-79.85,3080,,,WELLINGTON ST N & BURLINGTON STREET,WELLINGTON at BURLINGTON,0,
43.26,0,1456,-79.85,3083,,,WELLINGTON ST N & MACAULEY STREET,WELLINGTON at MACAULAY,0,
43.26,0,1204,-79.96,3086,,,WELLINGTON ST S & HATT STREET,WELLINGTON at HATT,0,
43.27,0,1204,-79.96,3087,,,WELLINGTON ST S & KING STREET,WELLINGTON at KING,0,
43.26,0,1432,-79.97,3088,,,WELLINGTON ST S & MILL STREET,WELLINGTON at MILL,0,
43.25,0,1125,-79.86,3089,,,WELLINGTON ST S & GROVE STREET,WELLINGTON at GROVE,0,
43.23,0,2902,-79.88,3091,,,WEST 5TH ST & #312 WEMBLEY RD OPP.,WEST 5TH opposite WEMBLEY,0,
43.21,0,2907,-79.89,3092,,,WEST 5TH ST & #814 SONATA AV OPP.,WEST 5TH opposite SONATA,0,
43.21,0,2925,-79.89,3093,,,WEST 5TH ST & #815 SONATA AV,WEST 5TH at SONATA,0,
43.24,0,2896,-79.88,3094,,,WEST 5TH ST & BRANTDALE AV,WEST 5TH at BRANTDALE,0,
43.23,0,2959,-79.88,3095,,,WEST 5TH ST & FENNELL AVENUE,WEST 5TH at FENNELL,0,
43.23,0,2897,-79.88,3096,,,WEST 5TH ST & FENNELL AVENUE,WEST 5TH at FENNELL,0,
43.23,0,2910,-79.88,3097,,,WEST 5TH ST & FENNELL AV W,WEST 5TH at FENNELL,0,
43.24,0,2910,-79.88,3098,,,WEST 5TH ST & BRANTDALE AV,WEST 5TH at BRANTDALE,0,
43.24,0,2910,-79.88,3099,,,WEST 5TH ST & GATEVIEW DR,WEST 5TH at GATEVIEW,0,
43.22,0,2928,-79.88,3100,,,WEST 5TH ST & JAMESTON AVENUE,WEST 5TH at JAMESTON,0,
43.22,0,2904,-79.88,3101,,,WEST 5TH ST & JAMESTON AVENUE OPP. (@#666),WEST 5TH opposite JAMESTON,0,
43.22,0,2905,-79.89,3102,,,WEST 5TH ST & LIMERIDGE ROAD,WEST 5TH at LIMERIDGE,0,
43.22,0,2305,-79.89,3103,,,WEST 5TH ST & LIMERIDGE ROAD,WEST 5TH at LIMERIDGE,0,
43.22,0,2904,-79.88,3104,,,WEST 5TH ST & MARLOWE DRIVE,WEST 5TH at MARLOWE,0,
43.22,0,2928,-79.88,3105,,,WEST 5TH ST & MARLOWE DRIVE OPP. (@#521),WEST 5TH opposite MARLOWE,0,
43.23,0,2930,-79.88,3106,,,WEST 5TH ST & WEMBLEY RD,WEST 5TH at MCELROY,0,
43.23,0,2902,-79.88,3107,,,WEST 5TH ST & MOHAWK ROAD,WEST 5TH at MOHAWK,0,
43.22,0,2929,-79.88,3108,,,WEST 5TH ST & MOHAWK ROAD,WEST 5TH at MOHAWK,0,
43.23,0,2902,-79.88,3109,,,WEST 5TH ST & SOUTH BEND ROAD,WEST 5TH at SOUTH BEND,0,
43.23,0,2930,-79.88,3110,,,WEST 5TH ST & SOUTH BEND ROAD,WEST 5TH at SOUTH BEND,0,
43.22,0,2928,-79.88,3111,,,WEST 5TH ST & TYRONE DRIVE,WEST 5TH at TYRONE,0,
43.22,0,2904,-79.88,3112,,,WEST 5TH ST & TYRONE DRIVE (@#592),WEST 5TH at TYRONE,0,
43.25,0,1114,-79.93,3113,,,WHITNEY AV & #431W MERICOURT RD. - RIGGIEL,At 431 WHITNEY,0,
43.25,0,1115,-79.92,3114,,,WHITNEY AV & ALEXANDER PARK (Op. St. Mary's,WHITNEY at ALEXANDER PARK,0,
43.25,0,1116,-79.92,3115,,,WHITNEY AV & EMERSON STREET,WHITNEY at EMERSON,0,
43.25,0,1115,-79.93,3117,,,WHITNEY AV & EWEN ROAD,WHITNEY at EWEN,0,
43.25,0,1188,-79.93,3118,,,WHITNEY AV & EWEN ROAD,WHITNEY at EWEN,0,
43.25,0,1116,-79.92,3119,,,WHITNEY AV & LELAND STREET,WHITNEY at LELAND,0,
43.25,0,1187,-79.92,3120,,,WHITNEY AV & LELAND STREET,WHITNEY at LELAND,0,
43.25,0,1114,-79.93,3121,,,WHITNEY AV & LOWER HORNING ROAD,WHITNEY at LOWER HORNING,0,
43.25,0,1189,-79.93,3122,,,WHITNEY AV & LOWER HORNING ROAD,WHITNEY at LOWER HORNING,0,
43.25,0,1190,-79.93,3123,,,WHITNEY AV & MAIN STREET W,WHITNEY at MAIN,0,
43.25,0,1114,-79.93,3124,,,WHITNEY AV & MERICOURT ROAD,WHITNEY at MERICOURT,0,
43.25,0,1190,-79.93,3125,,,WHITNEY AV & MERICOURT ROAD,WHITNEY at MERICOURT,0,
43.25,0,1115,-79.92,3126,,,WHITNEY AV & RIFLE RANGE ROAD,WHITNEY at RIFLE RANGE,0,
43.25,0,1188,-79.92,3127,,,WHITNEY AV & RIFLE RANGE ROAD,WHITNEY at RIFLE RANGE,0,
43.25,0,1267,-79.86,3128,,,WILSON ST & # 130 ( OPP. ELGIN STREET ),WILSON opposite ELGIN,0,
43.25,0,1267,-79.85,3129,,,WILSON ST & CATHCART STREET,WILSON at CATHCART,0,
43.25,0,1269,-79.85,3130,,,WILSON ST & EMERALD STREET,WILSON at EMERALD,0,
43.25,0,1078,-79.84,3131,,,WILSON ST & GIBSON AVENUE,WILSON at GIBSON,0,
43.25,0,1270,-79.84,3133,,,WILSON ST & SANFORD AVENUE,WILSON at SANFORD,0,
43.25,0,1078,-79.83,3135,,,WILSON ST & SHERMAN AVENUE (@# 716),WILSON at SHERMAN,0,
43.25,0,1269,-79.85,3136,,,WILSON ST & STEVEN STREET,WILSON at STEVEN,0,
43.25,0,1270,-79.84,3137,,,WILSON ST & STIRTON STREET,WILSON at STIRTON,0,
43.25,0,1268,-79.85,3138,,,WILSON ST & VICTORIA AVENUE,WILSON at VICTORIA,0,
43.25,0,1268,-79.85,3139,,,WILSON ST & WELLINGTON STREET,WILSON at WELLINGTON,0,
43.25,0,1259,-79.84,3140,,,WILSON ST & WENTWORTH STREET,WILSON at WENTWORTH,0,
43.22,0,2637,-79.98,3141,,,WILSON ST E & # 170 ( OPP. DALEY DRIVE ),WILSON opposite DALLEY,0,
43.21,0,2618,-79.99,3142,,,WILSON ST W & # 185 OPP. SEMINOLE ROAD,WILSON opposite SEMINOLE,0,
43.24,0,2607,-79.94,3143,,,WILSON ST E & #1221 (E LOWER LIONS CLUB RD.),At 1221 WILSON,0,
43.24,0,2607,-79.94,3145,,,WILSON ST E & WENTWORTH TRIPLE RINKS,At 1260 WILSON,0,
43.24,0,2642,-79.94,3146,,,WILSON ST E & WENTWORTH RINKS,At 1265 WILSON,0,
43.22,0,2611,-79.97,3147,,,WILSON ST E & #245( OPP. HALSON STREET),WILSON opposite HALSON,0,
43.22,0,2638,-79.97,3148,,,WILSON ST E & ACADEMY STREET,WILSON at ACADEMY,0,
43.22,0,2610,-79.97,3149,,,WILSON ST E & ACADEMY STREET OPP,WILSON opposite ACADEMY,0,
43.20,0,2656,-79.99,3150,,,WILSON ST W & AMBERLEY BLVD,WILSON at AMBERLY,0,
43.22,0,2636,-79.98,3151,,,WILSON ST E & CAMERON DRIVE,WILSON at CAMERON,0,
43.20,0,2655,-80.01,3152,,,WILSON ST W & CANADIAN TIRE - WAL-MART,At 1060 WILSON,0,
43.21,0,2618,-79.99,3153,,,WILSON ST W & CENTRAL DRIVE,WILSON at CENTRAL,0,
43.21,0,2633,-79.99,3154,,,WILSON ST W & CENTRAL DRIVE OPP,WILSON opposite CENTRAL,0,
43.22,0,2639,-79.97,3155,,,WILSON ST E & CHURCH STREET,WILSON at CHURCH,0,
43.22,0,2612,-79.98,3156,,,WILSON ST E & DALLEY DRIVE,WILSON at DALLEY,0,
43.21,0,2618,-79.99,3157,,,WILSON ST W & DUNHAM DRIVE,WILSON at DUNHAM,0,
43.21,0,2615,-79.98,3158,,,WILSON ST E & FIDDLER'S GREEN ROAD,WILSON at FIDDLER'S GREEN EAST,0,
43.21,0,2635,-79.98,3159,,,WILSON ST E & FIDDLER'S GREEN ROAD,WILSON at FIDDLER'S GREEN,0,
43.21,0,2617,-79.98,3160,,,WILSON ST W & FIDDLER'S GREEN ROAD,WILSON at FIDDLER'S GREEN WEST,0,
43.21,0,2617,-79.98,3161,,,WILSON ST W & ANCASTER TOWN PLAZA,WILSON at ANCASTER TOWN PLAZA,0,
43.21,0,2634,-79.98,3162,,,WILSON ST W & COUNTY FAIR PLAZA,WILSON at COUNTY FAIR PLAZA,0,
43.22,0,2637,-79.97,3163,,,WILSON ST E & HALSON ST,WILSON at HALSON,0,
43.20,0,2656,-80.00,3164,,,WILSON TRAFFIC CIRCLE & HAMILTON,WILSON at HAMILTON,0,
43.24,0,2609,-79.95,3165,,,WILSON ST E & HARPER'S GARDEN,At 1039 WILSON,0,
43.24,0,2640,-79.95,3166,,,WILSON ST E & HARPER'S GARDEN OPP.,Opposite 1039 WILSON,0,
43.22,0,2613,-79.98,3167,,,WILSON ST E & JERSEYVILLE ROAD,WILSON at JERSEYVILLE,0,
43.20,0,2629,-80.00,3168,,,WILSON ST W & MEADOWBROOK DRIVE,WILSON at MEADOWBROOK,0,
43.23,0,2640,-79.97,3169,,,WILSON ST E & MONTGOMERY DRIVE,WILSON at MONTGOMERY,0,
43.23,0,2609,-79.97,3170,,,WILSON ST E & MONTGOMERY DRIVE,WILSON at MONTGOMERY,0,
43.23,0,2638,-79.97,3172,,,WILSON ST E & ROUSSEAUX STREET,WILSON at ROUSSEAUX,0,
43.23,0,2640,-79.97,3173,,,WILSON ST E & ROUSSEAUX STREET,WILSON at ROUSSEAUX,0,
43.23,0,2610,-79.97,3174,,,WILSON ST E & ROUSSEAUX STREET,WILSON at OLD DUNDAS,0,
43.21,0,2633,-79.99,3175,,,WILSON ST W & SEMINOLE ROAD,WILSON at SEMINOLE,0,
43.21,0,2636,-79.98,3176,,,WILSON ST E & ST. MARGARET STREET,WILSON at ST. MARGARET,0,
43.22,0,2611,-79.97,3177,,,WILSON ST E & SULPHUR SPRINGS ROAD,WILSON at SULPHUR SPRING,0,
43.21,0,2634,-79.99,3178,,,WILSON ST W & TODD STREET,WILSON at TODD,0,
43.20,0,2619,-79.99,3179,,,WILSON ST W & VALLEYVIEW DRIVE,WILSON at VALLEYVIEW,0,
43.24,0,2607,-79.94,3180,,,WILSON ST E & WEST HAMILTON LP (OPP. #1198),WILSON at WEST HAMILTON LOOP,0,
43.24,0,1191,-79.94,3181,,,,WEST HAMILTON LOOP,0,
43.19,0,2468,-79.80,3183,,,WINTERBERRY DR & MUD STREET,WINTERBERRY at OLD MUD,0,
43.19,0,2459,-79.80,3184,,,WINTERBERRY DR & OLD MUD STREET,WINTERBERRY at OLD MUD,0,
43.19,0,2456,-79.80,3185,,,WINTERBERRY DR & RED HILL VALLEY PARKWAY,WINTERBERRY at MUD,0,
43.19,0,2467,-79.80,3186,,,WINTERBERRY DR & MUD ST W,WINTERBERRY at MUD,0,
43.19,0,2456,-79.80,3187,,,WINTERBERRY DR & PARAMOUNT DR,WINTERBERRY at PARAMOUNT,0,
43.19,0,2428,-79.80,3188,,,WINTERBERRY DR & PARAMOUNT DRIVE,WINTERBERRY at PARAMOUNT,0,
43.28,0,1326,-79.87,3189,,,WOODLAND CEMETERY & SPRING GARDEN,At WOODLAND CEMETERY,0,
43.25,0,2767,-79.77,3190,,,WOODWARD AV & opposite MUSEUM OF STEAM,WOODWARD opposite MUSEUM OF STEAM,0,
43.25,0,2683,-79.77,3191,,,WOODWARD AV & MUSEUM OF STEAM,WOODWARD at MUSEUM OF STEAM,0,
43.24,0,1028,-79.77,3192,,,WOODWARD AV & BARTON STREET,WOODWARD at BARTON,0,
43.25,0,1026,-79.77,3193,,,WOODWARD AV & BRAMPTON STREET,WOODWARD at BRAMPTON,0,
43.24,0,2511,-79.77,3194,,,WOODWARD AV & BRAMPTON STREET,WOODWARD at BRAMPTON,0,
43.24,0,1216,-79.77,3196,,,WOODWARD AV & MELVIN AVENUE,WOODWARD at MELVIN,0,
43.24,0,1027,-79.77,3197,,,WOODWARD AV & MELVIN AV,WOODWARD at MELVIN,0,
43.24,0,1028,-79.77,3198,,,WOODWARD AV & RENNIE ST,WOODWARD at RENNIE,0,
43.24,0,1042,-79.77,3199,,,WOODWARD AV & RENNIE STREET,WOODWARD at RENNIE,0,
43.24,0,1042,-79.77,3200,,,WOODWARD AV & VANSITMART AVENUE,WOODWARD at VANSITMART,0,
43.29,0,1325,-79.88,3202,,,YORK BV & PLAINS ROAD,YORK at PLAINS,0,
43.26,0,2932,-79.87,3203,,,YORK BV & BAY STREET,YORK at BAY,0,
43.26,0,2978,-79.88,3204,,,YORK BV & LOCKE ST N,YORK at LOCKE,0,
43.26,0,1264,-79.88,3205,,,YORK BV & DUNDURN CASTLE ENT. (pole # 1,YORK opposite HAMILTON CEMETERY,0,
43.28,0,1334,-79.89,3206,,,YORK BV & GUELPH ROAD,YORK at OLD GUELPH,0,
43.28,0,1323,-79.89,3207,,,YORK BV & GUELPH ROAD OPP.,YORK opposite OLD GUELPH,0,
43.27,0,1336,-79.88,3208,,,YORK BV & HAM CEMETERY NORTH ENT.(@# 777,YORK at HAMILTON CEMETERY NORTH,0,
43.27,0,1323,-79.88,3209,,,YORK BV & HAM. CEMETARY NORTH ENT. OPP.,YORK opposite HAMILTON CEMETERY,0,
43.27,0,1264,-79.88,3210,,,YORK BV & HAMILTON CEM ENT. OP.(Op.#777),YORK opposite HAMILTON CEMETERY,0,
43.27,0,1336,-79.88,3211,,,YORK BV & HAMILTON CEMETRY ENTRANCE,YORK at HAMILTON CEMETERY,0,
43.27,0,1336,-79.88,3212,,,YORK BV & Opp  HARVEY PARK,YORK at HAMILTON CEMETERY,0,
43.27,0,1323,-79.88,3213,,,YORK BV & HARVEY PARK (pole # 13882)),YORK opposite HAMILTON CEMETERY,0,
43.26,0,2932,-79.87,3214,,,YORK BV & HESS STREET,YORK at HESS,0,
43.26,0,2979,-79.88,3215,,,YORK BV & INCHBURY ST,YORK at INCHBURY,0,
43.26,0,2983,-79.88,3217,,,YORK BV & LOCKE STREET,YORK at LOCKE,0,
43.25,0,2985,-79.87,3218,,,YORK BV & PARK ST N,YORK opposite PARK,0,
43.26,0,2984,-79.88,3219,,,YORK BV & PEARL STREET NORTH,YORK at PEARL,0,
43.26,0,2984,-79.87,3220,,,YORK BV & QUEEN STREET,YORK at QUEEN,0,
43.26,0,2978,-79.87,3221,,,CANNON ST W & QUEEN STREET,CANNON at QUEEN,0,
43.26,0,2978,-79.87,3222,,,YORK BV & RAY STREET,YORK at RAY,0,
43.28,0,1334,-79.89,3223,,,YORK BV & ROCK GARDEN ENTRANCE,YORK opposite ROCK GARDEN,0,
43.28,0,1325,-79.89,3224,,,YORK BV & ROCK GARDEN ENTRANCE,YORK at ROCK GARDEN,0,
43.26,0,2979,-79.88,3225,,,YORK BV & STRATHCONA AVENUE OPP.,YORK opposite STRATHCONA,0,
43.26,0,1336,-79.88,3226,,,YORK BV & DUNDURN,YORK at WOODBINE,0,
43.27,0,1350,-79.94,3227,,,YORK RD & CAIRNS AVENUE OPP.(Op. #122),YORK opposite CAIRNS,0,
43.27,0,1347,-79.94,3228,,,YORK RD & CAMERON AVENUE,YORK at CAMERON,0,
43.27,0,1349,-79.94,3229,,,YORK RD & CAMERON AVENUE,YORK at CAMERON,0,
43.26,0,1348,-79.94,3230,,,YORK RD & DONALD AVENUE,YORK at DONALD,0,
43.27,0,1347,-79.93,3231,,,YORK RD & FIELDGATE STREET,YORK at FIELDGATE,0,
43.27,0,1349,-79.93,3232,,,YORK RD & FIELDGATE ST OPP. (Op. #241),YORK opposite FIELDGATE,0,
43.26,0,1348,-79.94,3233,,,YORK RD & HUNTER STREET,YORK at HUNTER,0,
43.26,0,1350,-79.94,3234,,,YORK RD & WILLETT,YORK at WILLETT,0,
43.26,0,1350,-79.95,3235,,,YORK RD & KING STREET,YORK at KING,0,
43.26,0,1348,-79.95,3236,,,YORK RD & COOTES DR,YORK at COOTES,0,
43.27,0,1347,-79.94,3237,,,YORK RD & MACKAY ROAD,YORK at MCKAY,0,
43.27,0,1349,-79.94,3238,,,YORK RD & MACKAY ROAD OPP.,YORK opposite MCKAY,0,
43.27,0,1349,-79.93,3239,,,YORK RD & OLYMPIC DRIVE,YORK at OLYMPIC,0,
43.27,0,1347,-79.93,3240,,,YORK RD & OLYMPIC DRIVE,YORK at OLYMPIC,0,
43.27,0,1347,-79.94,3241,,,YORK RD & WATSON LANE,YORK at WATSONS,0,
43.27,0,1349,-79.94,3242,,,YORK RD & WATSON LANE OPP. (Op. #211),YORK opposite WATSONS,0,
43.20,0,2395,-79.88,3250,,,STONE CHURCH RD E & PINERIDGE DR,STONE CHURCH at PINERIDGE,0,
43.20,0,2392,-79.88,3251,,,STONE CHURCH RD E & PINERIDGE DR,STONE CHURCH at PINERIDGE,0,
43.23,0,2339,-79.91,3252,,,MOHAWK RD W & RICE AV,MOHAWK at RICE,0,
43.25,0,2855,-79.86,3254,,,KING ST E & JAMES ST N,KING at JAMES,0,
43.24,0,2348,-79.91,355256,,,SANATORIUM RD & opp 820,Opposite 820 SANATORIUM,0,
43.22,0,1002,-79.77,355258,,,NASH RD S & RAINBOW,NASH opposite RAINBOW,0,
43.25,0,1001,-79.94,355260,,,PRIVATE RD,UNIVERSITY PLAZA PLATFORM 1,0,
43.26,0,1343,-79.89,355262,,,MACKLIN ST N & GLEN RD,MACKLIN at GLEN,0,
43.18,0,2129,-79.84,355264,,,KILBRIDE RD & TRANSFER STATION,KILBRIDE at TRANSFER STATION,0,
43.18,0,2129,-79.84,355265,,,KILBRIDE RD & UPPER OTTAWA ST,KILBRIDE at UPPER OTTAWA,0,
43.18,0,2147,-79.84,355269,,,UPPER OTTAWA ST & RYMAL RD  (SE),UPPER OTTAWA at RYMAL,0,
43.24,0,2346,-79.91,355270,,,SANATORIUM RD & #820 N of SCENIC (EAST),At 820 SANATORIUM,0,
43.21,0,4470,-79.92,355272,,,RYMAL RD W & # 707  Opp.,Opposite 707 RYMAL,0,
43.24,0,2038,-79.85,355276,,,CONCESSION ST & UPPER WENTWORTH ST,CONCESSION at UPPER WENTWORTH,0,
43.26,0,1183,-79.91,355277,,,UNIVERSITY AV & OPP LIFE SCIENCE BLDG,UNIVERSITY opposite LIFE SCIENCES,0,
43.22,0,1043,-79.81,355278,,,KENILWORTH CIRCLE & KIMBERLEY DR,KENILWORTH CIRCLE at KIMBERLY,0,
43.22,0,2475,-79.94,355279,,,MARTINDALE & HOME DEPOT,At 122 MARTINDALE,0,
43.24,0,1042,-79.77,355280,,,WOODWARD AV & WALMER RD,WOODWARD at WALMER,0,
43.26,0,1485,-79.90,355281,,,LONGWOOD RD S & MARION AVENUE,LONGWOOD at MARION,0,
43.25,0,1176,-79.87,355282,,,KING ST W & QUEEN STREET,KING at QUEEN,0,
43.24,0,1028,-79.77,355284,,,WOODWARD AV & WALMER RD   OPP,WOODWARD opposite WALMER,0,
43.22,0,2867,-79.93,355286,,,STONE CHURCH RD & STONEHENGE DR,STONE CHURCH at STONEHENGE,0,
43.22,0,2326,-79.93,355287,,,STONE CHURCH RD & STONEHENGE DR,STONE CHURCH opposite STONEHENGE,0,
43.23,0,1210,-79.74,355288,,,BARTON ST E & opp BELLMANOR ST,BARTON opposite BELL MANOR,0,
43.21,0,2397,-79.90,355289,,,STONE CHURCH RD W & #236  OPPOSITE,Opposite 236 STONE CHURCH,0,
43.25,0,2681,-79.78,355291,,,BURLINGTON ST E & # 1755 OPP,BURLINGTON opposite 1755,0,
43.21,0,2345,-79.90,355292,,,STONE CHURCH RD W & opp. #236,At 240 STONE CHURCH,0,
43.23,0,2318,-79.92,355293,,,CHEDMAC DR & opp HEPBURN CR,CHEDMAC opposite HEPBURN,0,
43.21,0,2488,-79.79,355295,,,GREENHILL AV & GLEN VISTA DR,GREENHILL at GLEN VISTA,0,
43.21,0,2485,-79.79,355296,,,GREENHILL AV & GLEN VISTA DR,GREENHILL opposite GLEN VISTA,0,
43.22,0,1156,-79.79,355297,,,KING ST E & opp  LAWRENCE RD,KING opposite LAWRENCE,0,
43.22,0,1147,-79.79,355298,,,KING ST E & LAWRENCE RD,KING at LAWRENCE,0,
43.22,0,2368,-79.86,355301,,,UPPER WENTWORTH ST & MOWHAWK RD,UPPER WENTWORTH at MOHAWK,0,
43.25,0,2122,-79.87,355308,,,KING ST W & SUMMERS LN,KING opposite SUMMERS LANE,0,
43.26,0,1082,-79.86,355309,,,JAMES ST N & CANNON ST W,JAMES at CANNON,0,
43.26,0,1079,-79.86,355310,,,JAMES ST N & BARTON ST E,JAMES at BARTON,0,
43.26,0,1072,-79.86,355311,,,JAMES ST N & STRACHAN ST E,JAMES at STRACHAN,0,
43.27,0,2121,-79.86,355312,,,DISCOVERY DR & HWT CENTRE,DISCOVERY at HWT CENTRE,0,
43.27,0,2121,-79.86,355313,,,DISCOVERY DR & PIER 8,DISCOVERY at PIER 8,0,
43.26,0,1074,-79.86,355314,,,JAMES ST N & STRACHAN ST E,JAMES at STRACHAN,0,
43.25,0,1460,-79.85,355315,,,VICTORIA AV S & KING ST E,VICTORIA at KING,0,
43.25,0,1461,-79.85,355316,,,VICTORIA AV N & WILSON ST,VICTORIA at WILSON,0,
43.25,0,1462,-79.85,355317,,,VICTORIA AV N & CANNON ST E,VICTORIA at CANNON,0,
43.26,0,1463,-79.85,355318,,,VICTORIA AV N & BARTON ST E,VICTORIA at BARTON,0,
43.26,0,1464,-79.85,355319,,,VICTORIA AV N & SHAW ST,VICTORIA at SHAW,0,
43.26,0,1465,-79.84,355320,,,WENTWORTH ST N & BURTON ST,WENTWORTH at MARS,0,
43.26,0,1466,-79.84,355321,,,WENTWORTH ST N & BURTON ST,WENTWORTH at BURTON,0,
43.25,0,1466,-79.84,355322,,,WENTWORTH ST N & BARTON ST E,WENTWORTH at BARTON,0,
43.25,0,1467,-79.84,355323,,,WENTWORTH ST N & CANNON ST E,WENTWORTH at CANNON,0,
43.25,0,1468,-79.84,355324,,,WENTWORTH ST N & WILSON ST,WENTWORTH at WILSON,0,
43.25,0,1469,-79.84,355325,,,WENTWORTH ST N & KING ST E,WENTWORTH at KING,0,
43.25,0,1470,-79.84,355326,,,WENTWORTH ST S & MAIN ST E,WENTWORTH at MAIN,0,
43.24,0,1471,-79.85,355327,,,WENTWORTH ST S & DELAWARE AV,WENTWORTH at DELAWARE,0,
43.25,0,1089,-79.86,355332,,,KING ST W,KING at JAMES,0,
43.31,0,1800,-79.85,355340,,,RIVERS & 403 HY,ALDERSHOT GO VIA STATION PLATFORM 6,0,
43.32,0,1805,-79.88,355341,,,MILL ST S & MOUNTAIN BROW RD,MILL at MOUNTAIN BROW,0,
43.33,0,1807,-79.89,355342,,,MILL ST S & HIGHWAY NO. 5 E,MILL at DUNDAS,0,
43.33,0,1809,-79.89,355343,,,HIGHWAY NO. 5 E & MAIN ST N,DUNDAS at MAIN,0,
43.33,0,1811,-79.89,355344,,,HIGHWAY NO. 5 E & HAMILTON ST N,DUNDAS at HAMILTON,0,
43.32,0,1813,-79.89,355345,,,HIGHWAY NO. 5 E & PERRELLI ST,DUNDAS at PERRELLI,0,
43.32,0,1815,-79.90,355346,,,HIGHWAY NO. 5 E & RILEY ST,DUNDAS at RILEY,0,
43.32,0,1817,-79.90,355347,,,HIGHWAY NO. 5 E & MCDONALD CT,DUNDAS at MCDONALD,0,
43.31,0,1819,-79.90,355348,,,HIGHWAY NO. 5 E & HOLLYBUSH DR,DUNDAS at HOLLYBUSH,0,
43.31,0,1821,-79.91,355349,,,HIGHWAY NO. 5 E & CLAPPISON AV,DUNDAS at CLAPPISON,0,
43.31,0,1823,-79.91,355350,,,HIGHWAY NO. 5 E & CLAPPISON AV,DUNDAS at HIGHWAY 6,0,
43.32,0,1830,-79.92,355351,,,PARKSIDE DR & HIGHWAY NO. 6,PARKSIDE at HIGHWAY 6,0,
43.32,0,1828,-79.91,355352,,,PARKSIDE DR & HOLLYBUSH DR,PARKSIDE at HOLLYBUSH,0,
43.32,0,1826,-79.91,355353,,,PARKSIDE DR & DUNCAN AV,PARKSIDE at DUNCAN,0,
43.33,0,1824,-79.91,355354,,,PARKSIDE DR & BRAEHEID AV,PARKSIDE at BRAEHEID,0,
43.33,0,1822,-79.90,355355,,,PARKSIDE DR & KEEWAYDIN ST,PARKSIDE at KEEWAYDIN,0,
43.33,0,1820,-79.90,355356,,,PARKSIDE DR & HAMILTON ST N,PARKSIDE at HAMILTON,0,
43.34,0,1818,-79.89,355357,,,PARKSIDE DR & MILL ST N,PARKSIDE at MILL,0,
43.34,0,1816,-79.88,355358,,,PARKSIDE DR & BOULDING AV,PARKSIDE at BOULDING,0,
43.35,0,1814,-79.88,355359,,,PARKSIDE DR & EVANS RD,PARKSIDE at EVANS,0,
43.34,0,1812,-79.87,355360,,,EVANS RD & HIGHWAY NO. 5 E,EVANS at DUNDAS,0,
43.34,0,1825,-79.87,355361,,,HIGHWAY NO. 5 E & HIGHWAY NO. 5 E,DUNDAS at SPRING CREEK,0,
43.34,0,1827,-79.88,355362,,,HIGHWAY NO. 5 E & PAMELA ST,DUNDAS at PAMELA,0,
43.33,0,1829,-79.88,355363,,,HIGHWAY NO. 5 E & BURKE ST,DUNDAS at BURKE WALKWAY,0,
43.33,0,1831,-79.88,355364,,,HIGHWAY NO. 5 E & FIRST ST,DUNDAS at FIRST,0,
43.33,0,1833,-79.89,355365,,,HIGHWAY NO. 5 E & BURKE ST,DUNDAS at MILL,0,
43.33,0,1810,-79.89,355366,,,MILL ST S & GRIFFIN ST,MILL at DUNDAS,0,
43.32,0,1808,-79.88,355367,,,MILL ST S & MOUNTAIN BROW RD,MILL at MOUNTAIN BROW,0,
43.25,0,1321,-79.90,355368,,,MAIN ST W & LONGWOOD ROAD,MAIN at LONGWOOD,0,
43.18,0,1547,-79.82,355370,,,RYMAL RD E & GLOVER RD,RYMAL  opposite GLOVER,0,
43.18,0,1545,-79.83,355371,,,RYMAL RD E & DARTNALL RD,RYMAL at DARTNALL,0,
43.18,0,1543,-79.83,355372,,,RYMAL RD E & DARTNALL RD,At 1275 RYMAL,0,
43.18,0,1541,-79.83,355373,,,RYMAL RD E & NEBO RD,RYMAL at NEBO,0,
43.18,0,1539,-79.84,355374,,,RYMAL RD E & NEBO RD,At 1157 RYMAL,0,
43.19,0,1537,-79.84,355375,,,RYMAL RD E & UPPER OTTAWA ST,RYMAL at UPPER OTTAWA,0,
43.19,0,1535,-79.84,355376,,,RYMAL RD E & ROCKLAND AV,RYMAL at ROCKLAND,0,
43.19,0,1533,-79.85,355377,,,RYMAL RD E & DERBY ST,RYMAL opposite DERBY,0,
43.19,0,1531,-79.85,355378,,,RYMAL RD E & UPPER GAGE AV,RYMAL at UPPER GAGE,0,
43.19,0,1523,-79.86,355379,,,RYMAL RD E & UPPER SHERMAN AV,RYMAL at UPPER SHERMAN,0,
43.19,0,1521,-79.86,355380,,,RYMAL RD E & ARROWHEAD DR,RYMAL opposite ARROWHEAD,0,
43.19,0,1519,-79.86,355381,,,RYMAL RD E & ACADIA DR,RYMAL at ACADIA,0,
43.19,0,1517,-79.87,355382,,,RYMAL RD E & UPPER WENTWORTH ST,RYMAL at UPPER WENTWORTH,0,
43.20,0,1509,-79.88,355383,,,RYMAL RD E & UPPER WELLINGTON ST,RYMAL at UPPER WELLINGTON,0,
43.20,0,1507,-79.88,355384,,,RYMAL RD E & ATESSA DR,RYMAL at  ATESSA,0,
43.20,0,1505,-79.89,355385,,,RYMAL RD E & UPPER JAMES ST,RYMAL at UPPER JAMES,0,
43.20,0,1526,-79.91,355386,,,RYMAL RD W & GARTH ST,RYMAL at GARTH,0,
43.20,0,1525,-79.91,355387,,,RYMAL RD W & SPADARA DR,RYMAL at SPADARA,0,
43.20,0,1524,-79.92,355388,,,RYMAL RD W & UPPER PARADISE RD,RYMAL at UPPER PARADISE,0,
43.20,0,1500,-79.92,355389,,,RYMAL RD W & UPPER PARADISE RD,RYMAL at UPPER PARADISE,0,
43.20,0,1501,-79.91,355390,,,RYMAL RD W & SPADARA DR,RYMAL opposite SPADARA,0,
43.20,0,1502,-79.91,355391,,,RYMAL RD W & GARTH ST,RYMAL at GARTH,0,
43.20,0,1504,-79.89,355392,,,RYMAL RD E & RYCKMAN ST,RYMAL at UPPER JAMES,0,
43.20,0,1506,-79.88,355393,,,RYMAL RD E & SPRINGSIDE DR,RYMAL at SPRINGSIDE,0,
43.19,0,1508,-79.88,355394,,,RYMAL RD E & UPPER WELLINGTON ST,RYMAL at UPPER WELLINGTON,0,
43.19,0,1516,-79.87,355395,,,RYMAL RD E & UPPER WENTWORTH ST,RYMAL at UPPER WENTWORTH EAST,0,
43.19,0,1518,-79.86,355396,,,RYMAL RD E & ARROWHEAD DR,RYMAL at ARROWHEAD,0,
43.19,0,1520,-79.86,355397,,,RYMAL RD E & UPPER SHERMAN AV,RYMAL at UPPER SHERMAN,0,
43.19,0,1532,-79.85,355398,,,RYMAL RD E & UPPER GAGE AV,RYMAL at UPPER GAGE EAST,0,
43.19,0,1534,-79.85,355399,,,RYMAL RD E & DERBY ST,RYMAL at DERBY,0,
43.19,0,1536,-79.84,355400,,,RYMAL RD E & GRAYROCKS AV,RYMAL at GRAYROCKS,0,
43.19,0,1538,-79.84,355401,,,RYMAL RD E & UPPER OTTAWA ST,RYMAL at UPPER OTTAWA,0,
43.18,0,1540,-79.84,355402,,,RYMAL RD E & UPPER OTTAWA ST,At 1154 RYMAL,0,
43.18,0,1542,-79.83,355403,,,RYMAL RD E & NEBO RD,RYMAL at NEBO,0,
43.18,0,1544,-79.83,355404,,,RYMAL RD E & NEBO RD,At 1280 RYMAL,0,
43.18,0,1546,-79.83,355405,,,RYMAL RD E & DARTNALL RD,RYMAL at DARTNALL,0,
43.18,0,1548,-79.82,355406,,,RYMAL RD E & GLOVER RD,RYMAL at GLOVER,0,
43.22,0,2352,-79.86,355409,,,MOHAWK RD E & UPPER WENTWORTH ST,MOHAWK at UPPER WENTWORTH,0,
43.19,0,4038,-79.80,355410,,,WINTERBERRY DR & MUD ST W,WINTERBERRY at MUD,0,
43.19,0,1428,-80.01,355411,,,SHAVER RD & LIDDYCOAT LN,SHAVER opposite LIDDYCOAT,0,
43.24,0,1221,-79.79,355413,,,BARTON ST E & FAIRFIELD AV,BARTON at FAIRFIELD,0,
43.25,0,1701,-79.86,355415,,,PRIVATE RD & JOHN ST S,HAMILTON GO CENTRE PLATFORM 18,0,
43.22,0,2303,-79.90,355416,,,LIMERIDGE RD W & BRITTEN CLOSE,LIMERIDGE at BRITTEN CLOSE,0,
43.25,0,1711,-79.86,355418,,,MAIN ST E & BOWEN ST,MAIN at BOWEN,0,
43.25,0,1265,-79.86,355419,,,JOHN ST S & JACKSON ST E,JOHN at JACKSON,0,
43.25,0,1265,-79.86,355424,,,JOHN ST S & JACKSON ST E,JOHN at JACKSON,0,
43.25,0,1266,-79.86,355427,,,JOHN ST N & WILSON ST,JOHN at WILSON,0,
43.26,0,1240,-79.86,355428,,,JOHN ST N & CANNON ST E,JOHN at CANNON,0,
43.26,0,1240,-79.86,355429,,,JOHN ST N & ROBERT ST,JOHN at ROBERT,0,
43.26,0,1241,-79.86,355430,,,JOHN ST N & BARTON ST E,JOHN at BARTON,0,
43.25,0,1903,-79.87,355431,,,JAMES ST S & JACKSON ST W,JAMES at JACKSON,0,
43.25,0,1077,-79.86,355432,,,PRIVATE RD & JAMES ST S,HAMILTON GO CENTRE PLATFORM 17,0,
43.20,0,2486,-79.80,355435,,,PARAMOUNT DR & HICKORY AV,PARAMOUNT at HICKORY,0,
43.25,0,9225,-79.86,355436,,,JOHN ST N & WILSON ST,JOHN at WILSON,0,
43.25,0,3000,-79.85,355437,,,CANNON ST E & WELLINGTON ST N,CANNON at WELLINGTON,0,
43.25,0,3001,-79.85,355438,,,CANNON ST E & FERGUSON AV N,CANNON at FERGUSON,0,
43.25,0,3002,-79.86,355439,,,CANNON ST E & CATHARINE ST N,CANNON at CATHARINE,0,
43.26,0,3003,-79.86,355440,,,CANNON ST E & HUGHSON ST N,CANNON at HUGHSON,0,
43.25,0,4068,-79.87,355447,,,HUNTER ST W & BAY ST S,HUNTER at BAY,0,
43.25,0,2922,-79.87,355448,,,BAY ST S & GEORGE ST,BAY opposite GEORGE,0,
43.25,0,1088,-79.86,355449,,,MAIN ST E & JOHN ST S,MAIN at JOHN,0,
43.25,0,8900,-79.86,355450,,,JAMES ST S & MAIN ST E,JAMES at MAIN,0,
43.25,0,2968,-79.87,355453,,,HUNTER ST W & BAY ST S,HUNTER at BAY,0,
43.25,0,2922,-79.87,355454,,,BAY ST S & GEORGE ST,BAY opposite GEORGE,0,
43.29,0,2760,-79.79,355457,,,BEACH BV & OPPOSITE DIEPPE MEMORIAL,BEACH opposite DIEPPE MEMORIAL,0,
43.27,0,1698,-79.86,355458,,,JAMES ST N & GUISE ST E,JAMES at GUISE,0,
43.27,0,1699,-79.86,355459,,,JAMES ST N & GUISE ST E,JAMES at GUISE,0,
43.15,0,9222,-79.91,355462,,,AIRPORT RD W & HOMESTEAD DR,AIRPORT at HOMESTEAD,0,
43.15,0,9203,-79.91,355463,,,AIRPORT RD W & HOMESTEAD DR,AIRPORT at HOMESTEAD,0,
43.16,0,9201,-79.92,355464,,,AIRPORT RD W & PRIVATE RD,AIRPORT PASSENGER TERMINAL,0,
43.18,0,4499,-80.02,355465,,,CORMORANT RD,At 1290 CORMORANT,0,
43.20,0,4481,-79.98,355466,,,GARNER RD W & FIDDLERS GREEN RD,GARNER at FIDDLERS GREEN,0,
43.20,0,4475,-79.95,355467,,,GARNER RD E & SOUTHCOTE RD,GARNER at SOUTHCOTE,0,
43.21,0,4489,-79.93,355468,,,GARNER RD E & GLANCASTER RD,Opposite 1131 GARNER,0,
43.18,0,4417,-79.81,355469,,,RYMAL RD E & TRINITY CHURCH RD,RYMAL at TRINITY CHURCH,0,
43.17,0,4409,-79.77,355470,,,RYMAL RD E & UPPER CENTENNIAL PY,At 2260 RYMAL,0,
43.18,0,4405,-79.76,355471,,,UPPER CENTENNIAL PY & MUD ST E,UPPER CENTENNIAL at MUD,0,
43.21,0,4403,-79.76,355472,,,CENTENNIAL PY & KING ST W,CENTENNIAL at KING,0,
43.21,0,4406,-79.76,355473,,,CENTENNIAL PY S & KING ST E,CENTENNIAL at KING,0,
43.19,0,4408,-79.76,355474,,,UPPER CENTENNIAL PY & MUD ST W,UPPER CENTENNIAL at MUD,0,
43.17,0,4414,-79.77,355475,,,2285 RYMAL RD E & UPPER CENTENNIAL PY,At 2285 RYMAL,0,
43.18,0,4422,-79.82,355476,,,RYMAL RD E & TRINITY CHURCH RD,RYMAL opposite 1610,0,
43.21,0,4472,-79.93,355477,,,GARNER RD E & GLANCASTER RD,At 1131 GARNER,0,
43.20,0,4480,-79.95,355478,,,GARNER RD E & SOUTHCOTE RD,GARNER at SOUTHCOTE,0,
43.20,0,4484,-79.98,355479,,,GARNER RD E & FIDDLER'S GREEN RD,GARNER at FIDDLERS GREEN,0,
43.23,0,9210,-79.87,355490,,,UPPER JAMES ST & MONARCH RD,UPPER JAMES at MONARCH,0,
43.23,0,9215,-79.87,355491,,,UPPER JAMES ST & op MONARCH RD,UPPER JAMES opposite MONARCH,0,
43.24,0,9204,-79.87,355492,,,JAMES ST S & CHARLTON AV W,JAMES at CHARLTON,0,
43.23,0,9206,-79.88,355493,,,GOVERNORS DR & MAIN ENTRANCE,MOHAWK COLLEGE SOUTH ENTRANCE LOOP,0,
43.22,0,9212,-79.88,355496,,,UPPER JAMES ST & MOHAWK RD E,UPPER JAMES at MOHAWK,0,
43.22,0,9214,-79.88,355497,,,UPPER JAMES ST & ALDRIDGE ST,UPPER JAMES at ALDRIDGE,0,
43.21,0,9216,-79.88,355498,,,UPPER JAMES ST & STONE CHURCH RD E,UPPER JAMES at STONE CHURCH,0,
43.20,0,9218,-79.89,355499,,,UPPER JAMES ST & RYMAL RD E,UPPER JAMES at RYMAL,0,
43.19,0,9220,-79.89,355500,,,UPPER JAMES ST & TWENTY RD E,UPPER JAMES at TWENTY,0,
43.19,0,9205,-79.89,355504,,,UPPER JAMES ST & TWENTY RD E,UPPER JAMES at TWENTY,0,
43.26,0,1243,-79.85,355505,,,BARTON ST E & VICTORIA AV N,BARTON at VICTORIA,0,
43.20,0,9207,-79.89,355506,,,UPPER JAMES ST & RYMAL RD E,UPPER JAMES at RYMAL,0,
43.21,0,9209,-79.88,355507,,,UPPER JAMES ST & STONE CHURCH RD E,UPPER JAMES at STONE CHURCH,0,
43.22,0,9211,-79.88,355508,,,UPPER JAMES ST & RAMP LINC WB TO UPPER JAMES,UPPER JAMES NORTH OF LINC,0,
43.22,0,9213,-79.88,355509,,,UPPER JAMES ST & MOHAWK RD E,UPPER JAMES at MOHAWK,0,
43.24,0,9221,-79.86,355510,,,JOHN ST S & CHARLTON AV E,JOHN at CHARLTON,0,
43.25,0,9223,-79.86,355511,,,JOHN ST S & op  HAYMARKET ST,JOHN opposite HAYMARKET,0,
43.18,0,4410,-79.77,355514,,,UPPER CENTENNIAL PY & HIGHLAND RD E,UPPER CENTENNIAL at HIGHLAND,0,
43.17,0,4412,-79.77,355515,,,UPPER CENTENNIAL PY & CENTENNIAL SQUARE,At 35 UPPER CENTENNIAL,0,
43.17,0,4416,-79.78,355516,,,RYMAL RD E & op WAL MART,RYMAL opposite WALMART,0,
43.17,0,4416,-79.78,355517,,,RYMAL RD E & WHITEDEER RD,RYMAL at WHITEDEER,0,
43.17,0,4418,-79.79,355518,,,RYMAL RD E & SECOND RD W,RYMAL at SECOND,0,
43.17,0,4420,-79.80,355519,,,RYMAL RD E & FLETCHER RD,RYMAL opposite FLETCHER,0,
43.18,0,4420,-79.81,355520,,,RYMAL RD E & UPPER MOUNT ALBION RD,RYMAL at UPPER MOUNT ALBION,0,
43.20,0,4472,-79.94,355521,,,GARNER RD E & op BENNETS APPLE,GARNER opposite BENNETTS APPLES,0,
43.20,0,4474,-79.94,355522,,,GARNER RD E & SPRINGBROOK AV,GARNER at SPRINGBROOK,0,
43.20,0,4476,-79.94,355523,,,GARNER RD E & PRIVATE RD,GARNER at REDEEMER UNIVERSITY,0,
43.20,0,4478,-79.95,355524,,,GARNER RD E & KITTY MURRAY LN,GARNER at KITTY MURRAY,0,
43.20,0,4482,-79.97,355525,,,GARNER RD E & WOODMOUNT AV,GARNER at WOODMOUNT,0,
43.20,0,4482,-79.97,355526,,,GARNER RD E & MILLER DR,GARNER at MILLER,0,
43.20,0,4482,-79.97,355527,,,GARNER RD E & ANSON DR,GARNER at ANSON,0,
43.20,0,4486,-79.98,355528,,,GARNER RD W & BRAITHWAITE AV,GARNER at BRAITHWAITE,0,
43.19,0,4486,-79.99,355529,,,GARNER RD W & PANABAKER DR,GARNER at PANABAKER,0,
43.19,0,4486,-80.00,355530,,,GARNER RD W & HAMILTON DR,GARNER at HAMILTON,0,
43.19,0,4488,-80.01,355531,,,GARNER RD W & SHAVER RD,GARNER at SHAVER,0,
43.19,0,4492,-80.03,355532,,,TRADEWIND DR & WILSON ST W,TRADEWIND at WILSON,0,
43.19,0,4494,-80.03,355533,,,SANDHILL DR & TRADEWIND DR,SANDHILL at TRADEWIND,0,
43.19,0,4494,-80.02,355534,,,SANDHILL DR & TRADEWIND DR,At 1354 SANDHILL,0,
43.19,0,4494,-80.02,355535,,,SANDHILL DR & OSPREY DR,SANDHILL at OSPREY,0,
43.19,0,4496,-80.02,355536,,,OSPREY DR & OSPREY DR,At 1363  OSPREY,0,
43.18,0,4496,-80.02,355537,,,OSPREY DR & CORMORANT RD,OSPREY at CORMORANT,0,
43.18,0,4498,-80.02,355538,,,CORMORANT RD & Opposite #1325,Opposite 1325 CORMORANT,0,
43.18,0,4497,-80.02,355539,,,CORMORANT RD & # 1325,At  1325 CORMORANT,0,
43.18,0,4495,-80.02,355540,,,OSPREY DR & CORMORANT RD,OSPREY at CORMORANT,0,
43.19,0,4495,-80.02,355541,,,OSPREY DR & CORMORANT RD,At 1362 OSPREY,0,
43.19,0,4493,-80.02,355543,,,SANDHILL DR & SANDHILL DR,At 1349 SANDHILL,0,
43.19,0,4493,-80.03,355544,,,SANDHILL DR & TRADEWIND DR,SANDHILL at TRADEWIND,0,
43.19,0,4491,-80.03,355545,,,TRADEWIND DR & WILSON ST W,TRADEWIND at WILSON,0,
43.19,0,4487,-80.01,355546,,,GARNER RD W & SHAVER RD,GARNER at SHAVER,0,
43.19,0,4485,-80.00,355547,,,GARNER RD W & HAMILTON DR,GARNER opposite HAMILTON,0,
43.19,0,4483,-79.99,355548,,,GARNER RD W & PANABAKER DR,GARNER opposite PANNABAKER,0,
43.20,0,4483,-79.98,355549,,,GARNER RD W & BRAITHWAITE AV,GARNER opposite BRAITHWAITE,0,
43.20,0,4479,-79.97,355550,,,GARNER RD E & ANSON DR,GARNER opposite ANSON,0,
43.20,0,4479,-79.97,355551,,,GARNER RD E & MILLER DR,GARNER opposite MILLER,0,
43.20,0,4477,-79.97,355552,,,GARNER RD E & WOODMOUNT AV,GARNER opposite WOODMOUNT,0,
43.20,0,4475,-79.95,355553,,,GARNER RD E & KITTY MURRAY LN,GARNER opposite KITTY MURRAY,0,
43.20,0,4475,-79.94,355554,,,GARNER RD E & KITTY MURRAY LN,At 734 GARNER,0,
43.20,0,4473,-79.94,355555,,,GARNER RD E & SPRINGBROOK,GARNER opposite SPRINGBROOK,0,
43.20,0,4473,-79.93,355556,,,GARNER RD E,GARNER at BENNETTS APPLES,0,
43.18,0,4415,-79.81,355557,,,RYMAL RD E & DAKOTA BV,RYMAL at DAKOTA,0,
43.17,0,4413,-79.80,355558,,,RYMAL RD E & FLETCHER RD,RYMAL at FLETCHER,0,
43.17,0,4411,-79.79,355559,,,RYMAL RD E & SECOND RD W,RYMAL opposite SECOND,0,
43.17,0,4411,-79.78,355560,,,RYMAL RD E & TERRYBERRY RD,RYMAL at TERRYBERRY,0,
43.17,0,4411,-79.78,355561,,,RYMAL RD E & WAL-MART,RYMAL at WALMART,0,
43.17,0,4407,-79.77,355562,,,UPPER CENTENNIAL PY & CENTENNIAL SQUARE,Opposite 35 UPPER CENTENNIAL,0,
43.18,0,4407,-79.77,355563,,,UPPER CENTENNIAL PY & HIGHLAND RD W,UPPER CENTENNIAL at HIGHLAND,0,
43.25,0,8090,-79.87,355565,,,BAY ST N & KING ST W,BAY at KING,0,
43.25,0,4071,-79.87,355566,,,BAY ST N & KING ST W,BAY at KING,0,
43.22,0,1140,-79.81,355567,,,GREENHILL AV & ERINDALE AV,GREENHILL opposite ERINDALE,0,
43.25,0,1312,-79.94,355570,,,PRIVATE RD,UNIVERSITY PLAZA PLATFORM 2,0,
43.25,0,2022,-79.87,355608,,1,MACNAB ST S & MAIN ST W,MACNAB TERMINAL PLATFORM 1,0,
43.25,0,2023,-79.87,355609,,1,MACNAB ST S & MAIN ST W,MACNAB TERMINAL PLATFORM 2,0,
43.25,0,2025,-79.87,355610,,1,MACNAB ST S & MAIN ST W,MACNAB TERMINAL PLATFORM 3,0,
43.25,0,2026,-79.87,355611,,1,MACNAB ST S & KING ST W,MACNAB TERMINAL PLATFORM 4,0,
43.25,0,2027,-79.87,355612,,1,MACNAB ST S & MAIN ST W,MACNAB TERMINAL PLATFORM 5,0,
43.25,0,1335,-79.87,355613,,1,MACNAB ST S & MAIN ST W,MACNAB TERMINAL PLATFORM 6,0,
43.25,0,2021,-79.87,355614,,1,MACNAB ST S & MAIN ST W,MACNAB TERMINAL PLATFORM 7,0,
43.24,0,1281,-79.79,355690,,,ROXBOROUGH AV & STRATHEARNE AV,ROXBOROUGH at STRATHEARNE,0,
43.25,0,2972,-79.89,355720,,,DUNDURN ST S & HERKIMER ST,DUNDURN at HERKIMER,0,
43.21,0,1152,-79.76,355721,,,KING ST E & CENTENNIAL PY,At 120 KING,0,
43.25,0,4022,-79.86,355722,,,JAMES ST S & JACKSON ST W,JAMES at JACKSON,0,
43.25,0,2189,-79.86,355723,,,JAMES ST S & JACKSON ST W,JAMES at JACKSON,0,
43.25,0,2024,-79.87,355724,,1,MACNAB ST S & MAIN ST W,MACNAB TERMINAL PLATFORM 2,0,
43.25,0,2840,-79.87,355725,,1,MACNAB ST S & MAIN ST W,MACNAB TERMINAL PLATFORM 7,0,
43.25,0,2986,-79.86,355727,,,YORK BV & MACNAB ST N,YORK opposite MACNAB,0,
43.25,0,4027,-79.87,355728,,,JAMES ST S & JACKSON ST E,JAMES at JACKSON,0,
43.26,0,2933,-79.90,355731,,,LONGWOOD RD S & KING ST W,LONGWOOD at KING,0,
43.19,0,2182,-79.83,355732,,,STONE CHURCH RD E & NEBO RD,STONE CHURCH opposite NEBO,0,
43.18,0,2420,-79.78,355733,,,GATESTONE DR & BEACHGROVE CR,GATESTONE opposite BEACHGROVE,0,
43.25,0,2964,-79.88,355734,,,LOCKE ST S & HUNTER ST W,LOCKE at HUNTER,0,
43.19,0,4495,-80.02,355735,,,OSPREY DR & SANDHILL DR,OSPREY opposite SANDHILL,0,
43.20,0,3541,-79.91,355736,,,YATES GT & BUTTY PASS,SISTER ELISABETH at SISTER VARGA,0,
43.20,0,3540,-79.91,355738,,,GARTH ST & RYMAL RD W,GARTH at RYMAL,0,
43.20,0,2142,-79.91,355739,,,ST. ELISABETH WAY & SISTER VARGA TR,SISTER ELISABETH opposite SISTER VARGA,0,
43.20,0,3542,-79.91,355740,,,GARTH ST & RYMAL RD W,GARTH at RYMAL,0,
43.20,0,2141,-79.91,355741,,,PRIVATE RD & GIBBONS SQUARE,GIBBONS SQUARE SHELTER,0,
43.25,0,1185,-79.91,355742,,,EMERSON ST & MAIN ST W,EMERSON at MAIN,0,
43.25,0,1187,-79.92,355743,,,WHITNEY AV & EMERSON ST,WHITNEY at EMERSON,0,
43.35,0,1840,-79.88,355744,,,PARKSIDE DR & SPRING CREEK DR,PARKSIDE at SPRING CREEK,0,
43.23,0,2043,-79.84,355745,,,CONCESSION ST & EAST 31ST ST,CONCESSION at EAST 31ST,0,
43.22,0,2542,-79.70,355746,,,BARTON ST & FRUITLAND RD,BARTON at FRUITLAND,0,
43.20,0,2297,-79.89,355751,,,UPPER JAMES ST & # 1441,At 1441 UPPER JAMES,0,
43.20,0,2287,-79.89,355752,,,UPPER JAMES ST & # 1452,At 1452 UPPER JAMES,0,
43.24,0,2386,-79.75,355753,,,CENTENNIAL PY N & GODERICH RD,CENTENNIAL at GODERICH,0,
43.24,0,5618,-79.75,355754,,,PRIVATE RD & CENTENNIAL PY N,WAL MART,0,
43.25,0,5623,-79.75,355755,,,VAN WAGNER'S BEACH RD & 680,At 680 VAN WAGNER'S BEACH,0,
43.25,0,5622,-79.76,355756,,,VAN WAGNER'S BEACH RD & opp 680,Opposite 680 VAN WAGNER'S BEACH,0,
43.24,0,5624,-79.75,355757,,,PRIVATE RD & CENTENNIAL PY N,WAL MART,0,
43.25,0,2962,-79.89,355760,,,DUNDURN ST S & CHARLTON AV W,DUNDURN at CHARLTON,0,
43.25,0,1239,-79.86,355762,,,JOHN ST N & KING WILLIAM ST,JOHN at KING WILLIAM,0,
43.25,0,2946,-79.86,355763,,,JOHN ST N & KING WILLIAM ST,JOHN at KING WILLIAM,0,
43.20,0,2140,-79.91,355764,,,SISTER ELISABETH WY & VILLAGE PHARMACY,SISTER ELIZABETH  AT PHARMACY,0,
43.24,0,2642,-79.94,355765,,,WILSON ST E & WEST HAMILTON LOOP,WILSON opposite WEST HAMILTON LOOP,0,
43.20,0,4473,-79.93,355769,,,GARNER RD E & RAYMOND RD,GARNER opposite RAYMOND,0,
43.20,0,4472,-79.93,355770,,,GARNER RD E & RAYMOND RD,GARNER at RAYMOND,0,
43.24,0,3313,-79.92,355774,,,REDFERN AV & CHEDMAC DR,REDFERN at CHEDMAC,0,
43.19,0,1638,-80.01,355775,,,WILSON ST W & MCCLURE RD,WILSON at MCCLURE,0,
43.22,0,2556,-79.73,355777,,,HIGHWAY NO. 8 & 307,At 307 HIGHWAY 8,0,
43.23,0,2564,-79.73,355781,,,BARTON ST & OPP  198 BARTON,Opposite 198 BARTON,0,
43.23,0,2535,-79.73,355782,,,BARTON ST & 198 BARTON,At 198 BARTON,0,
43.19,0,4402,-79.76,355793,,,UPPER CENTENNIAL PY & GREEN MOUNTAIN RD W,UPPER CENTENNIAL at GREEN MOUNTAIN,0,
43.19,0,4404,-79.76,355794,,,UPPER CENTENNIAL PY & GREEN MOUNTAIN RD E,UPPER CENTENNIAL at GREEN MOUNTAIN,0,
43.25,0,9903,-79.86,355795,,,YORK BV & MACNAB ST N,YORK opposite MACNAB,0,
43.18,0,1400,-79.90,355796,,,UPPER JAMES ST & PRIVATE RD,MOUNTAIN TRANSIT CENTRE RT27,0,
43.18,0,9208,-79.90,355797,,,UPPER JAMES ST & PRIVATE RD,MOUNTAIN TRANSIT CENTRE RT 20 NB,0,
43.18,0,9231,-79.90,355798,,,UPPER JAMES ST & PRIVATE RD,MOUNTAIN TRANSIT CENTRE RT 20 SB,0,
43.25,0,9224,-79.86,355799,,,JOHN ST N & KING WILLIAM ST,JOHN at KING WILLIAM,0,
43.26,0,9226,-79.86,355800,,,JOHN ST N & BARTON ST E,JOHN at BARTON,0,
43.26,0,9227,-79.86,355801,,,BARTON ST E & HUGHSON ST N,BARTON at HUGHSON,0,
43.26,0,9228,-79.86,355802,,,JAMES ST N & COLBOURNE ST,JAMES at COLBOURNE,0,
43.26,0,9229,-79.86,355803,,,JAMES ST N & CANNON ST W,JAMES at CANNON,0,
43.25,0,9230,-79.86,355804,,,JAMES ST N & REBECCA ST,JAMES opposite REBECCA,0,
43.25,0,9233,-79.86,355805,,,JOHN ST S & YOUNG ST,JOHN at YOUNG,0,
43.24,0,9234,-79.87,355806,,,ST. JOSEPH'S DR & JAMES ST S,ST. JOSEPH'S at JAMES,0,
43.24,0,9235,-79.88,355808,,,WEST 5TH ST & GATEVIEW DR,WEST 5TH at GATEVIEW,0,
43.24,0,9236,-79.88,355809,,,WEST 5TH ST & BRANTDALE AV,WEST 5TH at BRANTDALE,0,
43.23,0,9237,-79.88,355810,,,WEST 5TH ST & FENNELL AV W,WEST 5TH at FENNELL,0,
43.17,0,4420,-79.80,355812,,,RYMAL RD E & CELESTIAL CRS,RYMAL opposite CELESTIAL,0,
43.17,0,4411,-79.80,355813,,,RYMAL RD E & CELESTIAL CRS,RYMAL at CELESTIAL,0,
43.24,0,2170,-79.86,355814,,,UPPER WELLINGTON ST & MOUNTVILLE AV,UPPER WELLINGTON at MOUNTVILLE,0,
43.23,0,2046,-79.83,355817,,,CONCESSION ST & UPPER GAGE AV,CONCESSION at UPPER GAGE,0,
